[
  {
    "name": "ABERDARE",
    "crs": "ABA",
    "latitude": 51.7150579061,
    "longitude": -3.4430834461
  },
  {
    "name": "ABERDOUR",
    "crs": "AUR",
    "latitude": 56.0545919115,
    "longitude": -3.3005600173
  },
  {
    "name": "ABERDOVEY",
    "crs": "AVY",
    "latitude": 52.5439565996,
    "longitude": -4.0570670679
  },
  {
    "name": "ABER",
    "crs": "ABE",
    "latitude": 51.5749655354,
    "longitude": -3.2298284774
  },
  {
    "name": "ABERGELE & PENSARN",
    "crs": "AGL",
    "latitude": 53.2945730306,
    "longitude": -3.5826219884
  },
  {
    "name": "ABERCYNON",
    "crs": "ACY",
    "latitude": 51.643449909,
    "longitude": -3.3285698615
  },
  {
    "name": "ABERDEEN",
    "crs": "ABD",
    "latitude": 57.1437040232,
    "longitude": -2.0986851221
  },
  {
    "name": "ABERERCH",
    "crs": "ABH",
    "latitude": 52.8985830662,
    "longitude": -4.3741754367
  },
  {
    "name": "ABERGAVENNY",
    "crs": "AGV",
    "latitude": 51.8166898223,
    "longitude": -3.0096467989
  },
  {
    "name": "ABERYSTWYTH",
    "crs": "AYW",
    "latitude": 52.4140449484,
    "longitude": -4.0818935229
  },
  {
    "name": "ABBEY WOOD",
    "crs": "ABW",
    "latitude": 51.4910624683,
    "longitude": 0.12139411536
  },
  {
    "name": "ACTON BRIDGE (CHESHIRE)",
    "crs": "ACB",
    "latitude": 53.2665071955,
    "longitude": -2.6031265241
  },
  {
    "name": "ACHANALT",
    "crs": "AAT",
    "latitude": 57.6095958364,
    "longitude": -4.9138512575
  },
  {
    "name": "ACHNASHELLACH",
    "crs": "ACH",
    "latitude": 57.4820742655,
    "longitude": -5.333055256
  },
  {
    "name": "AUCHINLECK",
    "crs": "AUK",
    "latitude": 55.4702732649,
    "longitude": -4.2953491871
  },
  {
    "name": "ACHNASHEEN",
    "crs": "ACN",
    "latitude": 57.5792896542,
    "longitude": -5.0723321392
  },
  {
    "name": "ACKLINGTON",
    "crs": "ACK",
    "latitude": 55.3070982414,
    "longitude": -1.6518346135
  },
  {
    "name": "ACLE",
    "crs": "ACL",
    "latitude": 52.6346820173,
    "longitude": 1.54391527585
  },
  {
    "name": "ACOCKS GREEN",
    "crs": "ACG",
    "latitude": 52.4493227767,
    "longitude": -1.8189754114
  },
  {
    "name": "ACCRINGTON",
    "crs": "ACR",
    "latitude": 53.7529711808,
    "longitude": -2.3695477781
  },
  {
    "name": "ACTON CENTRAL",
    "crs": "ACC",
    "latitude": 51.5087162782,
    "longitude": -0.2629706148
  },
  {
    "name": "ACTON MAIN LINE",
    "crs": "AML",
    "latitude": 51.5171801456,
    "longitude": -0.2667563617
  },
  {
    "name": "EALING BROADWAY",
    "crs": "",
    "latitude": 51.5147109541963,
    "longitude": -0.300840583788371
  },
  {
    "name": "ADDERLEY PARK",
    "crs": "ADD",
    "latitude": 52.4830859425,
    "longitude": -1.8559444202
  },
  {
    "name": "ADDIEWELL",
    "crs": "ADW",
    "latitude": 55.8434089458,
    "longitude": -3.6065264125
  },
  {
    "name": "ADISHAM",
    "crs": "ADM",
    "latitude": 51.2412015359,
    "longitude": 1.19908926763
  },
  {
    "name": "ADLINGTON (CHESHIRE)",
    "crs": "ADC",
    "latitude": 53.3195539787,
    "longitude": -2.1335624728
  },
  {
    "name": "ADDLESTONE",
    "crs": "ASN",
    "latitude": 51.3730456637,
    "longitude": -0.4844567172
  },
  {
    "name": "ADLINGTON (LANCASHIRE)",
    "crs": "ADL",
    "latitude": 53.6132442806,
    "longitude": -2.6030708131
  },
  {
    "name": "ADWICK",
    "crs": "AWK",
    "latitude": 53.5723207186,
    "longitude": -1.1803562072
  },
  {
    "name": "AUGHTON PARK",
    "crs": "AUG",
    "latitude": 53.5542474163,
    "longitude": -2.8952208145
  },
  {
    "name": "AIGBURTH",
    "crs": "AIG",
    "latitude": 53.3645649206,
    "longitude": -2.9271549255
  },
  {
    "name": "AINSDALE",
    "crs": "ANS",
    "latitude": 53.6020322563,
    "longitude": -3.042652009
  },
  {
    "name": "AINTREE",
    "crs": "AIN",
    "latitude": 53.4739096243,
    "longitude": -2.9562803142
  },
  {
    "name": "AIRBLES",
    "crs": "AIR",
    "latitude": 55.782833104,
    "longitude": -3.994192441
  },
  {
    "name": "AIRDRIE",
    "crs": "ADR",
    "latitude": 55.8639787978,
    "longitude": -3.9829120638
  },
  {
    "name": "NEWCASTLE AIRPORT",
    "crs": "APN",
    "latitude": 55.0359490657,
    "longitude": -1.7110465099
  },
  {
    "name": "ALBANY PARK",
    "crs": "",
    "latitude": 51.4366172057,
    "longitude": 0.11953227212
  },
  {
    "name": "ALBANY PARK",
    "crs": "",
    "latitude": 51.4357987658475,
    "longitude": 0.126426751066453
  },
  {
    "name": "ALBANY PARK",
    "crs": "",
    "latitude": 51.4382606036,
    "longitude": 0.13205477527
  },
  {
    "name": "ALBANY PARK",
    "crs": "",
    "latitude": 51.435452655,
    "longitude": 0.12573715609
  },
  {
    "name": "ALBRIGHTON",
    "crs": "ALB",
    "latitude": 52.6379422462,
    "longitude": -2.2688999444
  },
  {
    "name": "ALDERLEY EDGE",
    "crs": "ALD",
    "latitude": 53.3037801276,
    "longitude": -2.2367990692
  },
  {
    "name": "ALDERMASTON",
    "crs": "AMT",
    "latitude": 51.4019616982,
    "longitude": -1.1374238096
  },
  {
    "name": "ALDERSHOT",
    "crs": "AHT",
    "latitude": 51.2464183771,
    "longitude": -0.7598597989
  },
  {
    "name": "ALDRINGTON",
    "crs": "AGT",
    "latitude": 50.8363838387,
    "longitude": -0.1838214341
  },
  {
    "name": "LIVERPOOL SOUTH PARKWAY",
    "crs": "",
    "latitude": 53.3577440907,
    "longitude": -2.8891277651
  },
  {
    "name": "ALEXANDRA PALACE",
    "crs": "AAP",
    "latitude": 51.5979239959,
    "longitude": -0.1202351393
  },
  {
    "name": "ALFRETON",
    "crs": "ALF",
    "latitude": 53.1004317221,
    "longitude": -1.3696960723
  },
  {
    "name": "ALLENS WEST",
    "crs": "ALW",
    "latitude": 54.5246227622,
    "longitude": -1.3611166922
  },
  {
    "name": "ALLOA",
    "crs": "ALO",
    "latitude": 56.1177891919,
    "longitude": -3.7900556215
  },
  {
    "name": "ALNESS",
    "crs": "ASS",
    "latitude": 57.6943941169,
    "longitude": -4.2497162851
  },
  {
    "name": "ALNMOUTH",
    "crs": "ALM",
    "latitude": 55.3927775781,
    "longitude": -1.6366376588
  },
  {
    "name": "ALRESFORD (ESSEX)",
    "crs": "ALR",
    "latitude": 51.8540007899,
    "longitude": 0.9974365883
  },
  {
    "name": "ALSAGER",
    "crs": "ASG",
    "latitude": 53.0930033362,
    "longitude": -2.2990575331
  },
  {
    "name": "AYLESHAM",
    "crs": "AYH",
    "latitude": 51.2272542965,
    "longitude": 1.2094529054
  },
  {
    "name": "ALTHORNE (ESSEX)",
    "crs": "ALN",
    "latitude": 51.6478704748,
    "longitude": 0.7524835631
  },
  {
    "name": "ALTNABREAC",
    "crs": "ABC",
    "latitude": 58.3881482762,
    "longitude": -3.7062802186
  },
  {
    "name": "ALTON",
    "crs": "AON",
    "latitude": 51.1519687911,
    "longitude": -0.9669132
  },
  {
    "name": "ALTHORPE",
    "crs": "ALP",
    "latitude": 53.5855007856,
    "longitude": -0.7331822015
  },
  {
    "name": "ALTRINCHAM",
    "crs": "ALT",
    "latitude": 53.3877165657,
    "longitude": -2.3468887855
  },
  {
    "name": "ALTON TOWERS",
    "crs": "ATW",
    "latitude": 52.9888014288839,
    "longitude": -1.88972198626932
  },
  {
    "name": "ALVECHURCH",
    "crs": "ALV",
    "latitude": 52.3460705859,
    "longitude": -1.9676604945
  },
  {
    "name": "ALVECHURCH RED LION",
    "crs": "ARP",
    "latitude": 52.3528561465,
    "longitude": -1.9609606759
  },
  {
    "name": "ALEXANDRIA",
    "crs": "ALX",
    "latitude": 55.9850831496,
    "longitude": -4.5774842363
  },
  {
    "name": "ALEXANDRA PARADE",
    "crs": "AXP",
    "latitude": 55.8631709152,
    "longitude": -4.2106480075
  },
  {
    "name": "AMBERGATE",
    "crs": "AMB",
    "latitude": 53.0605163282,
    "longitude": -1.4806974242
  },
  {
    "name": "AMERSHAM",
    "crs": "AMR",
    "latitude": 51.6742057989,
    "longitude": -0.607596056
  },
  {
    "name": "AMBERLEY",
    "crs": "AMY",
    "latitude": 50.8966800221,
    "longitude": -0.541992327
  },
  {
    "name": "AMMANFORD",
    "crs": "AMF",
    "latitude": 51.7959747272,
    "longitude": -3.9967348878
  },
  {
    "name": "TAMWORTH",
    "crs": "",
    "latitude": 52.636950925628,
    "longitude": -1.68668327388062
  },
  {
    "name": "AMPFIELD (SCHOOL)",
    "crs": "AMD",
    "latitude": 51.0067938408572,
    "longitude": -1.43124862924999
  },
  {
    "name": "ANCASTER",
    "crs": "ANC",
    "latitude": 52.9876873565,
    "longitude": -0.5356236521
  },
  {
    "name": "ANDOVER",
    "crs": "ADV",
    "latitude": 51.2115468802,
    "longitude": -1.4922329132
  },
  {
    "name": "ANDERSTON",
    "crs": "AND",
    "latitude": 55.8598969664,
    "longitude": -4.270979043
  },
  {
    "name": "ANERLEY",
    "crs": "ANZ",
    "latitude": 51.4121529856,
    "longitude": -0.0658858399
  },
  {
    "name": "ANGEL ROAD",
    "crs": "AGR",
    "latitude": 51.6124049276,
    "longitude": -0.0487913406
  },
  {
    "name": "ANGMERING",
    "crs": "ANG",
    "latitude": 50.8165753123,
    "longitude": -0.4893939399
  },
  {
    "name": "ANNAN",
    "crs": "ANN",
    "latitude": 54.9838352689,
    "longitude": -3.2625804581
  },
  {
    "name": "ANSDELL & FAIRHAVEN",
    "crs": "AFV",
    "latitude": 53.7414622845,
    "longitude": -2.9930339506
  },
  {
    "name": "ANNIESLAND",
    "crs": "",
    "latitude": 55.8893502722,
    "longitude": -4.3219568299
  },
  {
    "name": "ANNIESLAND",
    "crs": "",
    "latitude": 55.8895018775087,
    "longitude": -4.32163146780271
  },
  {
    "name": "APPLEBY",
    "crs": "APP",
    "latitude": 54.5803464285,
    "longitude": -2.4866922309
  },
  {
    "name": "APPLEDORE (KENT)",
    "crs": "APD",
    "latitude": 51.0332372898,
    "longitude": 0.81634166033
  },
  {
    "name": "APPERLEY BRIDGE",
    "crs": "APY",
    "latitude": 53.8417489717,
    "longitude": -1.70582848
  },
  {
    "name": "APPLEY BRIDGE",
    "crs": "APB",
    "latitude": 53.5786707436,
    "longitude": -2.7192520984
  },
  {
    "name": "APPLEFORD",
    "crs": "APF",
    "latitude": 51.6396412157,
    "longitude": -1.2421414036
  },
  {
    "name": "APSLEY",
    "crs": "APS",
    "latitude": 51.7325217602,
    "longitude": -0.4629347325
  },
  {
    "name": "ARBROATH",
    "crs": "ARB",
    "latitude": 56.559573741,
    "longitude": -2.5889313943
  },
  {
    "name": "ARROCHAR & TARBET",
    "crs": "ART",
    "latitude": 56.2039707923,
    "longitude": -4.7227700406
  },
  {
    "name": "ARDGAY",
    "crs": "ARD",
    "latitude": 57.8814523937,
    "longitude": -4.3620892061
  },
  {
    "name": "ARDLUI",
    "crs": "AUI",
    "latitude": 56.3019665442,
    "longitude": -4.7216573757
  },
  {
    "name": "ARDROSSAN HARBOUR",
    "crs": "ADS",
    "latitude": 55.6398722304,
    "longitude": -4.8211103769
  },
  {
    "name": "ARDROSSAN SOUTH BEACH",
    "crs": "ASB",
    "latitude": 55.6414161739,
    "longitude": -4.8012113948
  },
  {
    "name": "ARDROSSAN TOWN",
    "crs": "ADN",
    "latitude": 55.6397064697,
    "longitude": -4.8126751997
  },
  {
    "name": "ARDWICK",
    "crs": "ADK",
    "latitude": 53.4715498276,
    "longitude": -2.2143218098
  },
  {
    "name": "ARGYLE STREET",
    "crs": "AGS",
    "latitude": 55.8573039361,
    "longitude": -4.2506938838
  },
  {
    "name": "ARISAIG",
    "crs": "ARG",
    "latitude": 56.9125463927,
    "longitude": -5.8390776783
  },
  {
    "name": "ARKLOW",
    "crs": "ARW",
    "latitude": 52.7878074769799,
    "longitude": -6.09486096510496
  },
  {
    "name": "ARLESEY",
    "crs": "ARL",
    "latitude": 52.0260312605,
    "longitude": -0.2663197594
  },
  {
    "name": "SKYE (ARMADALE)",
    "crs": "ARA",
    "latitude": 57.064617096559,
    "longitude": -5.89273476778147
  },
  {
    "name": "ARMADALE (WEST LOTHIAN)",
    "crs": "ARM",
    "latitude": 55.8857097578,
    "longitude": -3.6954125989
  },
  {
    "name": "ARMATHWAITE",
    "crs": "AWT",
    "latitude": 54.8094651457,
    "longitude": -2.772071043
  },
  {
    "name": "ARNSIDE",
    "crs": "ARN",
    "latitude": 54.202728577,
    "longitude": -2.8282414456
  },
  {
    "name": "ARRAM",
    "crs": "ARR",
    "latitude": 53.8843436798,
    "longitude": -0.4265700518
  },
  {
    "name": "ARUNDEL",
    "crs": "ARU",
    "latitude": 50.8482148276,
    "longitude": -0.5461742177
  },
  {
    "name": "ARUNDEL LONDON ROAD",
    "crs": "ARZ",
    "latitude": 50.8544930673281,
    "longitude": -0.557947250002009
  },
  {
    "name": "ASCOT (BERKS)",
    "crs": "ACT",
    "latitude": 51.406243652,
    "longitude": -0.6758331694
  },
  {
    "name": "ASCOTT-UNDER-WYCHWOOD",
    "crs": "AUW",
    "latitude": 51.8673407807,
    "longitude": -1.5640526401
  },
  {
    "name": "ASHFORD (SURREY)",
    "crs": "AFS",
    "latitude": 51.4365071971,
    "longitude": -0.4680709159
  },
  {
    "name": "ASHFIELD",
    "crs": "ASF",
    "latitude": 55.8889218096,
    "longitude": -4.2492141153
  },
  {
    "name": "ASHBURYS",
    "crs": "ABY",
    "latitude": 53.4716378104,
    "longitude": -2.1944363304
  },
  {
    "name": "ASHCHURCH FOR TEWKESBURY",
    "crs": "ASC",
    "latitude": 51.9989040396,
    "longitude": -2.1087599436
  },
  {
    "name": "ASHTEAD",
    "crs": "AHD",
    "latitude": 51.317873794,
    "longitude": -0.3075716855
  },
  {
    "name": "ASHFORD INTERNATIONAL",
    "crs": "ASI",
    "latitude": 51.1436183869322,
    "longitude": 0.874206683690607
  },
  {
    "name": "ASHFORD INTERNATIONAL",
    "crs": "AFK",
    "latitude": 51.1437058572,
    "longitude": 0.87619737944
  },
  {
    "name": "ASH",
    "crs": "ASH",
    "latitude": 51.2495973162,
    "longitude": -0.7128053872
  },
  {
    "name": "ASHLEY",
    "crs": "ASY",
    "latitude": 53.3557236598,
    "longitude": -2.3414604259
  },
  {
    "name": "ASHTON-UNDER-LYNE",
    "crs": "AHN",
    "latitude": 53.4912728853,
    "longitude": -2.094312271
  },
  {
    "name": "ASHURST BALD FACE STAG (BY BUS)",
    "crs": "ABF",
    "latitude": 51.1307050564,
    "longitude": 0.15846441749
  },
  {
    "name": "ASHURST (KENT)",
    "crs": "AHS",
    "latitude": 51.1286627974,
    "longitude": 0.15265220319
  },
  {
    "name": "ASH VALE",
    "crs": "AHV",
    "latitude": 51.2722469404,
    "longitude": -0.7216485087
  },
  {
    "name": "ASHWELL & MORDEN",
    "crs": "AWM",
    "latitude": 52.0307721467,
    "longitude": -0.1097888367
  },
  {
    "name": "ASKAM",
    "crs": "ASK",
    "latitude": 54.1889296381,
    "longitude": -3.2045111905
  },
  {
    "name": "ASLOCKTON",
    "crs": "ALK",
    "latitude": 52.9515497613,
    "longitude": -0.8980975232
  },
  {
    "name": "ASPLEY GUISE",
    "crs": "APG",
    "latitude": 52.0212368462,
    "longitude": -0.6323344229
  },
  {
    "name": "ASPATRIA",
    "crs": "ASP",
    "latitude": 54.7589561925,
    "longitude": -3.3318736025
  },
  {
    "name": "ASTON",
    "crs": "AST",
    "latitude": 52.5042306577,
    "longitude": -1.871933538
  },
  {
    "name": "ATTADALE",
    "crs": "ATT",
    "latitude": 57.3950365598,
    "longitude": -5.4555770519
  },
  {
    "name": "ATHERTON",
    "crs": "ATN",
    "latitude": 53.5291438805,
    "longitude": -2.4789719932
  },
  {
    "name": "ATHERSTONE",
    "crs": "ATH",
    "latitude": 52.5789712019,
    "longitude": -1.5528113081
  },
  {
    "name": "ATTENBOROUGH",
    "crs": "ATB",
    "latitude": 52.9062129534,
    "longitude": -1.2314154802
  },
  {
    "name": "ATTLEBOROUGH",
    "crs": "ATL",
    "latitude": 52.5145479436,
    "longitude": 1.02234774572
  },
  {
    "name": "AUDLEY END",
    "crs": "AUD",
    "latitude": 52.0044398396,
    "longitude": 0.20730569075
  },
  {
    "name": "AVIEMORE",
    "crs": "AVM",
    "latitude": 57.1885118014,
    "longitude": -3.8288671784
  },
  {
    "name": "AVONCLIFF",
    "crs": "",
    "latitude": 51.3396508457,
    "longitude": -2.2813252787
  },
  {
    "name": "AVONMOUTH",
    "crs": "AVN",
    "latitude": 51.5003621551,
    "longitude": -2.6994661083
  },
  {
    "name": "AXMINSTER",
    "crs": "",
    "latitude": 50.7792712009,
    "longitude": -3.0047230973
  },
  {
    "name": "AXMINSTER",
    "crs": "",
    "latitude": 50.7790269049588,
    "longitude": -3.00557623636054
  },
  {
    "name": "AYLESFORD",
    "crs": "AYL",
    "latitude": 51.301317844,
    "longitude": 0.46617068355
  },
  {
    "name": "AYLESBURY",
    "crs": "AYS",
    "latitude": 51.8138905792,
    "longitude": -0.8150959054
  },
  {
    "name": "AYLESBURY VALE PARKWAY",
    "crs": "AVP",
    "latitude": 51.8311590182,
    "longitude": -0.8601823423
  },
  {
    "name": "AYR",
    "crs": "AYR",
    "latitude": 55.4581420262,
    "longitude": -4.6258756147
  },
  {
    "name": "BACHE",
    "crs": "BAC",
    "latitude": 53.2087856624,
    "longitude": -2.8916700458
  },
  {
    "name": "BURNAGE",
    "crs": "BNA",
    "latitude": 53.4211668158,
    "longitude": -2.2156781144
  },
  {
    "name": "BAGULEY MTLK",
    "crs": "BGK",
    "latitude": 53.3965851021938,
    "longitude": -2.29321314539244
  },
  {
    "name": "BAGSHOT",
    "crs": "BAG",
    "latitude": 51.3643675197,
    "longitude": -0.6886619109
  },
  {
    "name": "BAILDON",
    "crs": "BLD",
    "latitude": 53.8502242891,
    "longitude": -1.753636189
  },
  {
    "name": "BAKEWELL SQUARE",
    "crs": "BKZ",
    "latitude": 53.2131394953525,
    "longitude": -1.67651529045973
  },
  {
    "name": "BALCOMBE",
    "crs": "BAB",
    "latitude": 51.0555216567,
    "longitude": -0.1369336776
  },
  {
    "name": "BALDOCK",
    "crs": "BDK",
    "latitude": 51.9928712094,
    "longitude": -0.1875636737
  },
  {
    "name": "BALHAM",
    "crs": "BAL",
    "latitude": 51.4432248729,
    "longitude": -0.1524244157
  },
  {
    "name": "BAILLIESTON",
    "crs": "BIO",
    "latitude": 55.8445009924,
    "longitude": -4.1136984001
  },
  {
    "name": "BALLOCH",
    "crs": "BHC",
    "latitude": 56.0029336726,
    "longitude": -4.5834854062
  },
  {
    "name": "BALMOSSIE",
    "crs": "BSI",
    "latitude": 56.4745656131,
    "longitude": -2.8389557758
  },
  {
    "name": "BAMFORD",
    "crs": "BAM",
    "latitude": 53.3389997457,
    "longitude": -1.6890817262
  },
  {
    "name": "BANAVIE",
    "crs": "BNV",
    "latitude": 56.8433082672,
    "longitude": -5.0954255853
  },
  {
    "name": "BANGOR (GWYNEDD)",
    "crs": "BNG",
    "latitude": 53.2222825723,
    "longitude": -4.1358799319
  },
  {
    "name": "BANSTEAD",
    "crs": "",
    "latitude": 51.3279775393,
    "longitude": -0.2111021598
  },
  {
    "name": "BANSTEAD",
    "crs": "",
    "latitude": 51.3293488457,
    "longitude": -0.2131588524
  },
  {
    "name": "BARASSIE",
    "crs": "BSS",
    "latitude": 55.561058708,
    "longitude": -4.651138498
  },
  {
    "name": "BARE LANE",
    "crs": "BAR",
    "latitude": 54.0745414023,
    "longitude": -2.835330419
  },
  {
    "name": "BARGOED",
    "crs": "BGD",
    "latitude": 51.6923091846,
    "longitude": -3.2296795571
  },
  {
    "name": "BARKING",
    "crs": "BKG",
    "latitude": 51.5394947156,
    "longitude": 0.08090251386
  },
  {
    "name": "BARLASTON ORCHARD DRIVE",
    "crs": "BPL",
    "latitude": 52.9418603833,
    "longitude": -2.1715891996
  },
  {
    "name": "BARLASTON",
    "crs": "BRT",
    "latitude": 52.942872159,
    "longitude": -2.1681111084
  },
  {
    "name": "BARMING",
    "crs": "BMG",
    "latitude": 51.2848951997,
    "longitude": 0.47895820334
  },
  {
    "name": "BARNES",
    "crs": "BNS",
    "latitude": 51.4670860863,
    "longitude": -0.2421642115
  },
  {
    "name": "BARROW-IN-FURNESS",
    "crs": "BIF",
    "latitude": 54.119000142,
    "longitude": -3.2261203352
  },
  {
    "name": "BARROW-UPON-SOAR",
    "crs": "BWS",
    "latitude": 52.7493356502,
    "longitude": -1.1448429401
  },
  {
    "name": "BARRY",
    "crs": "BRY",
    "latitude": 51.3967826006,
    "longitude": -3.2849843663
  },
  {
    "name": "BARRY DOCKS",
    "crs": "BYD",
    "latitude": 51.4024416556,
    "longitude": -3.2607033481
  },
  {
    "name": "BARRY ISLAND",
    "crs": "BYI",
    "latitude": 51.3924134239,
    "longitude": -3.2733634199
  },
  {
    "name": "BARROW HAVEN",
    "crs": "BAV",
    "latitude": 53.6974209189,
    "longitude": -0.3929551595
  },
  {
    "name": "BASILDON",
    "crs": "BSO",
    "latitude": 51.5681064873,
    "longitude": 0.4567889653
  },
  {
    "name": "BAT & BALL",
    "crs": "BBL",
    "latitude": 51.2897607812,
    "longitude": 0.19422757424
  },
  {
    "name": "BATH SPA",
    "crs": "BTH",
    "latitude": 51.3776862324,
    "longitude": -2.3570181502
  },
  {
    "name": "BATLEY",
    "crs": "BTL",
    "latitude": 53.7099413407,
    "longitude": -1.6229524536
  },
  {
    "name": "BATTERSEA PARK",
    "crs": "BAK",
    "latitude": 51.4769597525,
    "longitude": -0.1475334396
  },
  {
    "name": "BATTLE",
    "crs": "BAT",
    "latitude": 50.9129155741,
    "longitude": 0.49470289462
  },
  {
    "name": "BAYFORD",
    "crs": "BAY",
    "latitude": 51.7577164299,
    "longitude": -0.0956099393
  },
  {
    "name": "BIRCHGROVE",
    "crs": "BCG",
    "latitude": 51.5215561911,
    "longitude": -3.2018532337
  },
  {
    "name": "BECKENHAM JUNCTION",
    "crs": "",
    "latitude": 51.4115049329075,
    "longitude": -0.0271324112785123
  },
  {
    "name": "BECKENHAM HILL",
    "crs": "BEC",
    "latitude": 51.4245825486,
    "longitude": -0.0159510302
  },
  {
    "name": "BECKENHAM JUNCTION",
    "crs": "",
    "latitude": 51.411035107,
    "longitude": -0.0258127416
  },
  {
    "name": "BECKENHAM JUNCTION",
    "crs": "",
    "latitude": 51.4111735319,
    "longitude": -0.0260224802
  },
  {
    "name": "BLACKWATER",
    "crs": "BAW",
    "latitude": 51.3315815812,
    "longitude": -0.7767409358
  },
  {
    "name": "BUCKLEY",
    "crs": "BCK",
    "latitude": 53.1630357996,
    "longitude": -3.0559256755
  },
  {
    "name": "BIRCHINGTON-ON-SEA",
    "crs": "BCH",
    "latitude": 51.3774925949,
    "longitude": 1.30140859632
  },
  {
    "name": "BEACONSFIELD",
    "crs": "BCF",
    "latitude": 51.6112912373,
    "longitude": -0.6438221979
  },
  {
    "name": "BICESTER NORTH",
    "crs": "BCS",
    "latitude": 51.9034827625,
    "longitude": -1.150383403
  },
  {
    "name": "BICESTER VILLAGE",
    "crs": "BIT",
    "latitude": 51.8930234244,
    "longitude": -1.1487641331
  },
  {
    "name": "BRICKET WOOD",
    "crs": "BWO",
    "latitude": 51.7054278911,
    "longitude": -0.3591149619
  },
  {
    "name": "BEDHAMPTON",
    "crs": "",
    "latitude": 50.8544467111,
    "longitude": -0.9952921588
  },
  {
    "name": "BEDHAMPTON",
    "crs": "",
    "latitude": 50.8539567239,
    "longitude": -0.9958283305
  },
  {
    "name": "BRODICK (ARRAN)",
    "crs": "BDC",
    "latitude": 55.5773805803565,
    "longitude": -5.13936177802654
  },
  {
    "name": "BEDMINSTER",
    "crs": "BMT",
    "latitude": 51.4400878832,
    "longitude": -2.594148945
  },
  {
    "name": "BIDSTON",
    "crs": "BID",
    "latitude": 53.409136532,
    "longitude": -3.0785605792
  },
  {
    "name": "BEARLEY",
    "crs": "BER",
    "latitude": 52.2444104194,
    "longitude": -1.7502552814
  },
  {
    "name": "BEASDALE",
    "crs": "BSL",
    "latitude": 56.8995538133,
    "longitude": -5.7638014735
  },
  {
    "name": "BEAULY",
    "crs": "BEL",
    "latitude": 57.4782825438,
    "longitude": -4.4698657775
  },
  {
    "name": "BEBINGTON",
    "crs": "BEB",
    "latitude": 53.3576538589,
    "longitude": -3.0036346731
  },
  {
    "name": "BECCLES",
    "crs": "BCC",
    "latitude": 52.4585225001,
    "longitude": 1.56949356787
  },
  {
    "name": "BEDFORD",
    "crs": "",
    "latitude": 52.136187361,
    "longitude": -0.4794422997
  },
  {
    "name": "BEDFORD",
    "crs": "",
    "latitude": 52.1375936329428,
    "longitude": -0.478891285323404
  },
  {
    "name": "BEDWORTH",
    "crs": "BEH",
    "latitude": 52.4792966998,
    "longitude": -1.4673920773
  },
  {
    "name": "BEDWYN",
    "crs": "BDW",
    "latitude": 51.3796400302,
    "longitude": -1.5987860961
  },
  {
    "name": "BEKESBOURNE",
    "crs": "BKS",
    "latitude": 51.2613575592,
    "longitude": 1.13670784046
  },
  {
    "name": "BELFORD BUS",
    "crs": "BFB",
    "latitude": 55.5986029923182,
    "longitude": -1.83018386936668
  },
  {
    "name": "BELMONT",
    "crs": "BLM",
    "latitude": 51.3438147997,
    "longitude": -0.1988550453
  },
  {
    "name": "BELLINGHAM",
    "crs": "BGM",
    "latitude": 51.4329130585,
    "longitude": -0.0193307245
  },
  {
    "name": "BELPER",
    "crs": "BLP",
    "latitude": 53.0237583907,
    "longitude": -1.4825103417
  },
  {
    "name": "BELVEDERE",
    "crs": "BVD",
    "latitude": 51.4921182002,
    "longitude": 0.15228619059
  },
  {
    "name": "BEMPTON",
    "crs": "BEM",
    "latitude": 54.1276593538,
    "longitude": -0.1804567626
  },
  {
    "name": "BENFLEET",
    "crs": "BEF",
    "latitude": 51.5439450657,
    "longitude": 0.56171347084
  },
  {
    "name": "BENCHILL MTLK",
    "crs": "BNK",
    "latitude": 53.3867810717773,
    "longitude": -2.25706129315799
  },
  {
    "name": "BERE ALSTON",
    "crs": "BAS",
    "latitude": 50.4855936365,
    "longitude": -4.2003544776
  },
  {
    "name": "BERE FERRERS",
    "crs": "BFE",
    "latitude": 50.4512769436,
    "longitude": -4.1814342298
  },
  {
    "name": "BERKHAMSTED",
    "crs": "BKM",
    "latitude": 51.7631338549,
    "longitude": -0.5620128997
  },
  {
    "name": "BERMUDA PARK",
    "crs": "BEP",
    "latitude": 52.5014336329,
    "longitude": -1.4721775983
  },
  {
    "name": "BERRY BROW",
    "crs": "BBW",
    "latitude": 53.621040701,
    "longitude": -1.7934320772
  },
  {
    "name": "BERWICK (SUSSEX)",
    "crs": "BRK",
    "latitude": 50.8403782915,
    "longitude": 0.16601770049
  },
  {
    "name": "BESCAR LANE",
    "crs": "BES",
    "latitude": 53.6238522682,
    "longitude": -2.9146105304
  },
  {
    "name": "BEDFORD ST JOHNS",
    "crs": "BSJ",
    "latitude": 52.1294781518,
    "longitude": -0.467500948
  },
  {
    "name": "BEESTON",
    "crs": "BEE",
    "latitude": 52.9207548099,
    "longitude": -1.2076578891
  },
  {
    "name": "BETWS-Y-COED",
    "crs": "BYC",
    "latitude": 53.0920664543,
    "longitude": -3.8008613362
  },
  {
    "name": "BEVERLEY",
    "crs": "BEV",
    "latitude": 53.8422735094,
    "longitude": -0.4229800465
  },
  {
    "name": "BEXHILL",
    "crs": "BEX",
    "latitude": 50.8410424261,
    "longitude": 0.47701670807
  },
  {
    "name": "BEXLEY",
    "crs": "BXY",
    "latitude": 51.4402194785,
    "longitude": 0.1479025861
  },
  {
    "name": "BAGLAN",
    "crs": "BAJ",
    "latitude": 51.6155407515,
    "longitude": -3.8111357545
  },
  {
    "name": "BRIDGE OF ALLAN",
    "crs": "BEA",
    "latitude": 56.1566351368,
    "longitude": -3.9572285114
  },
  {
    "name": "BARNT GREEN",
    "crs": "BTG",
    "latitude": 52.3610882676,
    "longitude": -1.992466496
  },
  {
    "name": "BIRMINGHAM INTERNATIONAL",
    "crs": "BHI",
    "latitude": 52.4508069719,
    "longitude": -1.7258566656
  },
  {
    "name": "JEWELLERY QUARTER",
    "crs": "JEQ",
    "latitude": 52.4894346454,
    "longitude": -1.9132127458
  },
  {
    "name": "BIRMINGHAM MOOR STREET",
    "crs": "BMO",
    "latitude": 52.4790792138,
    "longitude": -1.8924725073
  },
  {
    "name": "BIRMINGHAM NEW STREET",
    "crs": "",
    "latitude": 52.4778183868,
    "longitude": -1.900205346
  },
  {
    "name": "BIRMINGHAM SNOW HILL",
    "crs": "BSW",
    "latitude": 52.4833552573,
    "longitude": -1.8990884587
  },
  {
    "name": "BUSH HILL PARK",
    "crs": "BHK",
    "latitude": 51.6415185393,
    "longitude": -0.0692210324
  },
  {
    "name": "BICKLEY",
    "crs": "BKL",
    "latitude": 51.4001042145,
    "longitude": 0.04524062672
  },
  {
    "name": "BIGGLESWADE",
    "crs": "BIW",
    "latitude": 52.0846798486,
    "longitude": -0.2611871142
  },
  {
    "name": "BILBROOK",
    "crs": "BBK",
    "latitude": 52.6237178364,
    "longitude": -2.1860877361
  },
  {
    "name": "BILLERICAY",
    "crs": "BIC",
    "latitude": 51.6288836605,
    "longitude": 0.41862972179
  },
  {
    "name": "BILLINGSHURST",
    "crs": "BIG",
    "latitude": 51.0152044765,
    "longitude": -0.4503021538
  },
  {
    "name": "BINGHAM",
    "crs": "BIN",
    "latitude": 52.954190664,
    "longitude": -0.9515432512
  },
  {
    "name": "BIRCHWOOD",
    "crs": "BWD",
    "latitude": 53.412718144,
    "longitude": -2.525307884
  },
  {
    "name": "BIRKBECK",
    "crs": "BIK",
    "latitude": 51.4038915987,
    "longitude": -0.0557386582
  },
  {
    "name": "BISHOPTON (RENFREWSHIRE)",
    "crs": "BPT",
    "latitude": 55.902263983,
    "longitude": -4.500486466
  },
  {
    "name": "BURNTISLAND",
    "crs": "BTS",
    "latitude": 56.0570806577,
    "longitude": -3.2331977453
  },
  {
    "name": "BITTERNE",
    "crs": "BTE",
    "latitude": 50.9182208234,
    "longitude": -1.3769994706
  },
  {
    "name": "BIRKDALE",
    "crs": "BDL",
    "latitude": 53.6340495823,
    "longitude": -3.0144496086
  },
  {
    "name": "BROCKHOLES",
    "crs": "BHS",
    "latitude": 53.596971806,
    "longitude": -1.7696912183
  },
  {
    "name": "BUCKNELL",
    "crs": "BUK",
    "latitude": 52.3573789202,
    "longitude": -2.9473778367
  },
  {
    "name": "BROCKENHURST",
    "crs": "BCU",
    "latitude": 50.8168409523,
    "longitude": -1.5735310027
  },
  {
    "name": "BERKSWELL",
    "crs": "BKW",
    "latitude": 52.3958809282,
    "longitude": -1.6428402938
  },
  {
    "name": "BLAENAU FFESTINIOG",
    "crs": "BFF",
    "latitude": 52.9945483707,
    "longitude": -3.9385949296
  },
  {
    "name": "BLAIRHILL",
    "crs": "BAI",
    "latitude": 55.8664508148,
    "longitude": -4.0432903124
  },
  {
    "name": "BLAKEDOWN",
    "crs": "BKD",
    "latitude": 52.4064007898,
    "longitude": -2.1768653807
  },
  {
    "name": "BLANTYRE",
    "crs": "BLT",
    "latitude": 55.7973256008,
    "longitude": -4.0869707435
  },
  {
    "name": "BLAIR ATHOLL",
    "crs": "BLA",
    "latitude": 56.7655459781,
    "longitude": -3.85022796
  },
  {
    "name": "BLAYDON",
    "crs": "BLO",
    "latitude": 54.9657885156,
    "longitude": -1.7125806963
  },
  {
    "name": "BLACKHORSE ROAD",
    "crs": "BHO",
    "latitude": 51.5866054825,
    "longitude": -0.0412356603
  },
  {
    "name": "BLACKPOOL PLEASURE BEACH",
    "crs": "BPB",
    "latitude": 53.7879522334,
    "longitude": -3.0538759547
  },
  {
    "name": "BLACKPOOL NORTH",
    "crs": "BPN",
    "latitude": 53.8219148148,
    "longitude": -3.0492746535
  },
  {
    "name": "BLACKPOOL SOUTH",
    "crs": "BPS",
    "latitude": 53.7987007474,
    "longitude": -3.0489378121
  },
  {
    "name": "BLEASBY",
    "crs": "BSB",
    "latitude": 53.0413650607,
    "longitude": -0.9436874364
  },
  {
    "name": "BLENHEIM PALACE",
    "crs": "BHP",
    "latitude": 51.8426668620856,
    "longitude": -1.35980966897676
  },
  {
    "name": "LONDON BLACKFRIARS",
    "crs": "BFR",
    "latitude": 51.5118097294,
    "longitude": -0.1033319919
  },
  {
    "name": "BELFAST CENTRAL <NIR>",
    "crs": "BFC",
    "latitude": 54.5383760096885,
    "longitude": -5.92814012610781
  },
  {
    "name": "BELFAST DONEGALL QUAY",
    "crs": "BFQ",
    "latitude": 54.5568082254677,
    "longitude": -5.91443957117008
  },
  {
    "name": "BELFAST PORT",
    "crs": "BFA",
    "latitude": 54.5613411116272,
    "longitude": -5.91332673273216
  },
  {
    "name": "BELLGROVE",
    "crs": "BLG",
    "latitude": 55.8567042189,
    "longitude": -4.2243739328
  },
  {
    "name": "BEAULIEU ROAD",
    "crs": "BEU",
    "latitude": 50.8550485949,
    "longitude": -1.5047494667
  },
  {
    "name": "BLACKBURN",
    "crs": "BBN",
    "latitude": 53.7465160763,
    "longitude": -2.4791220517
  },
  {
    "name": "BLACKHEATH",
    "crs": "BKH",
    "latitude": 51.4657962411,
    "longitude": 0.00887195566
  },
  {
    "name": "BLACKRIDGE",
    "crs": "BKR",
    "latitude": 55.8842513938,
    "longitude": -3.7507966685
  },
  {
    "name": "BLAKE STREET",
    "crs": "BKT",
    "latitude": 52.6048847363,
    "longitude": -1.8449143822
  },
  {
    "name": "BELLE VUE",
    "crs": "BLV",
    "latitude": 53.462374605,
    "longitude": -2.1805069595
  },
  {
    "name": "BARLOW M RD MTLK",
    "crs": "BMM",
    "latitude": 53.4325958686528,
    "longitude": -2.26937923782537
  },
  {
    "name": "BLUNDELLSANDS & CROSBY",
    "crs": "BLN",
    "latitude": 53.4876834348,
    "longitude": -3.0398597752
  },
  {
    "name": "BILLINGHAM",
    "crs": "BIL",
    "latitude": 54.6056060992,
    "longitude": -1.2797195531
  },
  {
    "name": "BLOXWICH NORTH",
    "crs": "BWN",
    "latitude": 52.6254362343,
    "longitude": -2.0176843634
  },
  {
    "name": "BLOXWICH",
    "crs": "BLX",
    "latitude": 52.6182002707,
    "longitude": -2.0114778264
  },
  {
    "name": "BLACKROD",
    "crs": "BLK",
    "latitude": 53.5915219803,
    "longitude": -2.5695239431
  },
  {
    "name": "BELLSHILL",
    "crs": "BLH",
    "latitude": 55.8170634618,
    "longitude": -4.0244990837
  },
  {
    "name": "BLETCHLEY",
    "crs": "BLY",
    "latitude": 51.9953344532,
    "longitude": -0.7363204181
  },
  {
    "name": "BOLTON-UPON-DEARNE",
    "crs": "BTD",
    "latitude": 53.5189465348,
    "longitude": -1.3115460235
  },
  {
    "name": "BELTRING",
    "crs": "BEG",
    "latitude": 51.2047087228,
    "longitude": 0.40349559627
  },
  {
    "name": "BLYTHE BRIDGE",
    "crs": "BYB",
    "latitude": 52.9681422673,
    "longitude": -2.0669611081
  },
  {
    "name": "BAMBER BRIDGE",
    "crs": "BMB",
    "latitude": 53.726866512,
    "longitude": -2.6607749777
  },
  {
    "name": "BRAMHALL",
    "crs": "BML",
    "latitude": 53.3606126601,
    "longitude": -2.1635926038
  },
  {
    "name": "BRAMLEY (HAMPSHIRE)",
    "crs": "BMY",
    "latitude": 51.330293244,
    "longitude": -1.0610026738
  },
  {
    "name": "BANBURY",
    "crs": "BAN",
    "latitude": 52.0603081824,
    "longitude": -1.3281327569
  },
  {
    "name": "BRANDON",
    "crs": "BND",
    "latitude": 52.4540074224,
    "longitude": 0.62473186797
  },
  {
    "name": "BINGLEY",
    "crs": "BIY",
    "latitude": 53.848614092,
    "longitude": -1.8373222859
  },
  {
    "name": "BURNHAM (BUCKINGHAMSHIRE)",
    "crs": "BNM",
    "latitude": 51.5235055229,
    "longitude": -0.6463737386
  },
  {
    "name": "BARNHILL",
    "crs": "BNL",
    "latitude": 55.8774898052,
    "longitude": -4.2230048768
  },
  {
    "name": "BANK HALL",
    "crs": "BAH",
    "latitude": 53.4374933647,
    "longitude": -2.9875114015
  },
  {
    "name": "BEN RHYDDING",
    "crs": "BEY",
    "latitude": 53.9257140519,
    "longitude": -1.7974300566
  },
  {
    "name": "BARNES BRIDGE",
    "crs": "BNI",
    "latitude": 51.4720085213,
    "longitude": -0.2526301559
  },
  {
    "name": "BURNESIDE (CUMBRIA)",
    "crs": "BUD",
    "latitude": 54.3549797756,
    "longitude": -2.7666768781
  },
  {
    "name": "BARNSLEY",
    "crs": "BNY",
    "latitude": 53.5543007868,
    "longitude": -1.477164683
  },
  {
    "name": "BARNETBY",
    "crs": "BTB",
    "latitude": 53.5751209973,
    "longitude": -0.4096796262
  },
  {
    "name": "BENTLEY (HAMPSHIRE)",
    "crs": "BTY",
    "latitude": 51.181233083,
    "longitude": -0.8681268044
  },
  {
    "name": "BRENTFORD",
    "crs": "BFD",
    "latitude": 51.4875469063,
    "longitude": -0.3096509179
  },
  {
    "name": "BENTHAM",
    "crs": "BEN",
    "latitude": 54.1155172794,
    "longitude": -2.5106761514
  },
  {
    "name": "GLOUCESTER",
    "crs": "",
    "latitude": 51.8675429032015,
    "longitude": -2.23813172291026
  },
  {
    "name": "BRUNSWICK",
    "crs": "BRW",
    "latitude": 53.3832403789,
    "longitude": -2.9760768669
  },
  {
    "name": "BOAT OF GARTEN",
    "crs": "BGR",
    "latitude": 57.2485213493753,
    "longitude": -3.75337344018975
  },
  {
    "name": "BODMIN MOUNT FOLLY",
    "crs": "",
    "latitude": 50.4619831593681,
    "longitude": -4.72066284449858
  },
  {
    "name": "BODMIN PARKWAY",
    "crs": "BOD",
    "latitude": 50.4458627566,
    "longitude": -4.6629283511
  },
  {
    "name": "BODMIN MOUNT FOLLY",
    "crs": "",
    "latitude": 50.4619831593681,
    "longitude": -4.72066284449858
  },
  {
    "name": "BODORGAN",
    "crs": "BOR",
    "latitude": 53.2043019386,
    "longitude": -4.4180031882
  },
  {
    "name": "BOGNOR REGIS",
    "crs": "BOG",
    "latitude": 50.7865590557,
    "longitude": -0.6761782008
  },
  {
    "name": "BOGSTON",
    "crs": "BGS",
    "latitude": 55.9370415655,
    "longitude": -4.7114009764
  },
  {
    "name": "BOLTON",
    "crs": "BON",
    "latitude": 53.5741432523,
    "longitude": -2.4258246378
  },
  {
    "name": "BOURNEMOUTH",
    "crs": "BMH",
    "latitude": 50.7272733214,
    "longitude": -1.8645029468
  },
  {
    "name": "BOURNMTH AIR BUS",
    "crs": "BHA",
    "latitude": 50.7778444603675,
    "longitude": -1.82974294104072
  },
  {
    "name": "BOOKHAM",
    "crs": "BKA",
    "latitude": 51.2887386585,
    "longitude": -0.3840206064
  },
  {
    "name": "BRIDGE OF ORCHY",
    "crs": "BRO",
    "latitude": 56.5158669878,
    "longitude": -4.7629927803
  },
  {
    "name": "BOOTLE (CUMBRIA)",
    "crs": "BOC",
    "latitude": 54.2913020079,
    "longitude": -3.3938616419
  },
  {
    "name": "BOOTLE NEW STRAND",
    "crs": "BNW",
    "latitude": 53.4533885728,
    "longitude": -2.9947472432
  },
  {
    "name": "BOOTLE ORIEL ROAD",
    "crs": "BOT",
    "latitude": 53.4466207221,
    "longitude": -2.9957333951
  },
  {
    "name": "BOURNE END",
    "crs": "BNE",
    "latitude": 51.5771179015,
    "longitude": -0.7104734601
  },
  {
    "name": "BORTH",
    "crs": "BRH",
    "latitude": 52.4910269973,
    "longitude": -4.0501761908
  },
  {
    "name": "BOROUGH GREEN & WROTHAM",
    "crs": "BRG",
    "latitude": 51.2932192433,
    "longitude": 0.30624506129
  },
  {
    "name": "BOSHAM",
    "crs": "BOH",
    "latitude": 50.8427476194,
    "longitude": -0.8474311415
  },
  {
    "name": "BOSTON",
    "crs": "BSN",
    "latitude": 52.9780899418,
    "longitude": -0.0310031523
  },
  {
    "name": "BOTTESFORD",
    "crs": "BTF",
    "latitude": 52.9446145217,
    "longitude": -0.7948426194
  },
  {
    "name": "BOTLEY",
    "crs": "BOE",
    "latitude": 50.9164542694,
    "longitude": -1.2592363757
  },
  {
    "name": "BOURNVILLE",
    "crs": "BRV",
    "latitude": 52.4269631191,
    "longitude": -1.9264238296
  },
  {
    "name": "BOW BRICKHILL",
    "crs": "BWB",
    "latitude": 52.0043007316,
    "longitude": -0.696077747
  },
  {
    "name": "BOWES PARK",
    "crs": "BOP",
    "latitude": 51.607011879,
    "longitude": -0.1205818738
  },
  {
    "name": "BOWKER VALE MTLK",
    "crs": "BKV",
    "latitude": 53.5243191540357,
    "longitude": -2.25034969211339
  },
  {
    "name": "BOWLING",
    "crs": "BWG",
    "latitude": 55.931079406,
    "longitude": -4.4938415258
  },
  {
    "name": "BOX HILL & WESTHUMBLE",
    "crs": "BXW",
    "latitude": 51.2540118533,
    "longitude": -0.3284898749
  },
  {
    "name": "BOXHILL BURFD BR",
    "crs": "BXX",
    "latitude": 51.2541578845,
    "longitude": -0.3229816619
  },
  {
    "name": "BRACKNELL",
    "crs": "BCE",
    "latitude": 51.4130918883,
    "longitude": -0.751703561
  },
  {
    "name": "BRADFORD FORSTER SQUARE",
    "crs": "BDQ",
    "latitude": 53.7969244127,
    "longitude": -1.7529615389
  },
  {
    "name": "BRADFORD INTERCHANGE",
    "crs": "BDI",
    "latitude": 53.7910752487,
    "longitude": -1.7495957012
  },
  {
    "name": "BRAINTREE FREEPORT",
    "crs": "BTP",
    "latitude": 51.8694161382,
    "longitude": 0.56843481453
  },
  {
    "name": "BRAINTREE",
    "crs": "BTR",
    "latitude": 51.8753916838,
    "longitude": 0.55668710811
  },
  {
    "name": "BRAMPTON (SUFFOLK)",
    "crs": "BRP",
    "latitude": 52.3954350435,
    "longitude": 1.54381076638
  },
  {
    "name": "BRANKSOME",
    "crs": "BSM",
    "latitude": 50.7269646041,
    "longitude": -1.9197581998
  },
  {
    "name": "BRAY        (CIE",
    "crs": "BZY",
    "latitude": 53.2007597148214,
    "longitude": -6.11919455700018
  },
  {
    "name": "BROADBOTTOM",
    "crs": "BDB",
    "latitude": 53.4409737663,
    "longitude": -2.0165207699
  },
  {
    "name": "BRONDESBURY",
    "crs": "BSY",
    "latitude": 51.5451656923,
    "longitude": -0.2023086549
  },
  {
    "name": "BRONDESBURY PARK",
    "crs": "BSP",
    "latitude": 51.5406991211,
    "longitude": -0.210127586
  },
  {
    "name": "BRADFORD-ON-AVON",
    "crs": "BOA",
    "latitude": 51.3449141788,
    "longitude": -2.2523266417
  },
  {
    "name": "BRIDGWATER",
    "crs": "BWT",
    "latitude": 51.1278563398,
    "longitude": -2.9904054773
  },
  {
    "name": "BRADING",
    "crs": "BDN",
    "latitude": 50.678371929,
    "longitude": -1.1387223325
  },
  {
    "name": "BRIDLINGTON",
    "crs": "BDT",
    "latitude": 54.0841312671,
    "longitude": -0.1987203099
  },
  {
    "name": "BARDON MILL",
    "crs": "BLL",
    "latitude": 54.9744936159,
    "longitude": -2.3465044364
  },
  {
    "name": "BORDESLEY",
    "crs": "BBS",
    "latitude": 52.4718729941,
    "longitude": -1.8777686341
  },
  {
    "name": "BREDBURY",
    "crs": "BDY",
    "latitude": 53.42315332,
    "longitude": -2.1104880369
  },
  {
    "name": "BREICH",
    "crs": "BRC",
    "latitude": 55.8273122529,
    "longitude": -3.6681251359
  },
  {
    "name": "BROUGHTY FERRY",
    "crs": "BYF",
    "latitude": 56.4671602479,
    "longitude": -2.8731522977
  },
  {
    "name": "BROOMFLEET",
    "crs": "BMF",
    "latitude": 53.7402082224,
    "longitude": -0.6718283136
  },
  {
    "name": "BARGEDDIE",
    "crs": "BGI",
    "latitude": 55.8512912908,
    "longitude": -4.0738073523
  },
  {
    "name": "BRIDGEND",
    "crs": "BGN",
    "latitude": 51.5069735106,
    "longitude": -3.5752756832
  },
  {
    "name": "BRIGG",
    "crs": "BGG",
    "latitude": 53.5491450978,
    "longitude": -0.4861246766
  },
  {
    "name": "LONDON ROAD D R",
    "crs": "LRR",
    "latitude": 50.8361562076,
    "longitude": -0.1363094132
  },
  {
    "name": "LONDON ROAD (BRIGHTON)",
    "crs": "LRB",
    "latitude": 50.8366629211,
    "longitude": -0.1365022651
  },
  {
    "name": "BRIGHTON",
    "crs": "BTN",
    "latitude": 50.8290047711,
    "longitude": -0.1412802831
  },
  {
    "name": "BARRHEAD",
    "crs": "BRR",
    "latitude": 55.8037529901,
    "longitude": -4.3972832666
  },
  {
    "name": "BARNHAM",
    "crs": "BAA",
    "latitude": 50.8309065259,
    "longitude": -0.6396798706
  },
  {
    "name": "BRIGHOUSE",
    "crs": "BGH",
    "latitude": 53.6981972948,
    "longitude": -1.7794388366
  },
  {
    "name": "BRIDGETON",
    "crs": "BDG",
    "latitude": 55.8489625955,
    "longitude": -4.2260562786
  },
  {
    "name": "BRIERFIELD",
    "crs": "BRF",
    "latitude": 53.8239803982,
    "longitude": -2.2364899124
  },
  {
    "name": "BRIMSDOWN",
    "crs": "BMD",
    "latitude": 51.655583366,
    "longitude": -0.03081735
  },
  {
    "name": "BRITON FERRY",
    "crs": "BNF",
    "latitude": 51.6378959702,
    "longitude": -3.8192522462
  },
  {
    "name": "BRITHDIR",
    "crs": "BHD",
    "latitude": 51.7103024867,
    "longitude": -3.2287202056
  },
  {
    "name": "BRIXTON",
    "crs": "BRX",
    "latitude": 51.4632989255,
    "longitude": -0.1141833985
  },
  {
    "name": "BROOKLANDS MTLK",
    "crs": "BOK",
    "latitude": 53.4171724845784,
    "longitude": -2.326456153214
  },
  {
    "name": "BROOKMANS PARK",
    "crs": "BPK",
    "latitude": 51.7210617644,
    "longitude": -0.20454865
  },
  {
    "name": "CONWAY PARK",
    "crs": "CNP",
    "latitude": 53.3933583508,
    "longitude": -3.0226707854
  },
  {
    "name": "BIRKENHEAD CENTRAL",
    "crs": "BKC",
    "latitude": 53.3883133914,
    "longitude": -3.0208206537
  },
  {
    "name": "BIRKENHEAD NORTH",
    "crs": "BKN",
    "latitude": 53.4044346417,
    "longitude": -3.0575331428
  },
  {
    "name": "BIRKENHEAD PARK",
    "crs": "BKP",
    "latitude": 53.3974053213,
    "longitude": -3.0391007784
  },
  {
    "name": "BIRKENHEAD 12 QUAYS",
    "crs": "BKI",
    "latitude": 53.3998331190351,
    "longitude": -3.01365082452744
  },
  {
    "name": "BROOKWOOD",
    "crs": "BKO",
    "latitude": 51.3037579269,
    "longitude": -0.6357478161
  },
  {
    "name": "BERRYLANDS",
    "crs": "BRS",
    "latitude": 51.399045184,
    "longitude": -0.2807135895
  },
  {
    "name": "BURLEY PARK",
    "crs": "BUY",
    "latitude": 53.8120301786,
    "longitude": -1.577767518
  },
  {
    "name": "BROMBOROUGH",
    "crs": "BOM",
    "latitude": 53.3218463574,
    "longitude": -2.9868953614
  },
  {
    "name": "BROMBOROUGH RAKE",
    "crs": "BMR",
    "latitude": 53.3299061931,
    "longitude": -2.9894689264
  },
  {
    "name": "BROMLEY CROSS (LANCS)",
    "crs": "BMC",
    "latitude": 53.6140407501,
    "longitude": -2.4108987803
  },
  {
    "name": "BRAMLEY (WEST YORKSHIRE)",
    "crs": "BLE",
    "latitude": 53.8053487327,
    "longitude": -1.637206174
  },
  {
    "name": "BARMOUTH",
    "crs": "BRM",
    "latitude": 52.7228905674,
    "longitude": -4.0565957501
  },
  {
    "name": "BRAMPTON (CUMBRIA)",
    "crs": "BMP",
    "latitude": 54.9323902798,
    "longitude": -2.7029471921
  },
  {
    "name": "BROMSGROVE",
    "crs": "BMV",
    "latitude": 52.3206041451,
    "longitude": -2.049778592
  },
  {
    "name": "BURNHAM MARKET",
    "crs": "BMK",
    "latitude": 52.9450677729875,
    "longitude": 0.723648415730999
  },
  {
    "name": "BRANCHTON",
    "crs": "BCN",
    "latitude": 55.9405956408,
    "longitude": -4.8035481115
  },
  {
    "name": "BRINNINGTON",
    "crs": "BNT",
    "latitude": 53.4321164629,
    "longitude": -2.1351198789
  },
  {
    "name": "BARNEHURST",
    "crs": "BNH",
    "latitude": 51.4649591293,
    "longitude": 0.15964630799
  },
  {
    "name": "BURNHAM-ON-CROUCH",
    "crs": "BUU",
    "latitude": 51.6336578251,
    "longitude": 0.81402793935
  },
  {
    "name": "BARNSTAPLE",
    "crs": "BNP",
    "latitude": 51.0739695332,
    "longitude": -4.0631168535
  },
  {
    "name": "BERNEY ARMS",
    "crs": "BYA",
    "latitude": 52.5897871607,
    "longitude": 1.63037565597
  },
  {
    "name": "BROAD GREEN",
    "crs": "BGE",
    "latitude": 53.4065032888,
    "longitude": -2.8934839128
  },
  {
    "name": "BROCKLEY",
    "crs": "BCY",
    "latitude": 51.4646488461,
    "longitude": -0.0375366095
  },
  {
    "name": "BROMLEY NORTH",
    "crs": "BMN",
    "latitude": 51.4083277224,
    "longitude": 0.01699272077
  },
  {
    "name": "BROMLEY SOUTH",
    "crs": "BMS",
    "latitude": 51.3999763156,
    "longitude": 0.01734411348
  },
  {
    "name": "BROOME",
    "crs": "BME",
    "latitude": 52.4227715793,
    "longitude": -2.885207499
  },
  {
    "name": "BRORA",
    "crs": "BRA",
    "latitude": 58.012950224,
    "longitude": -3.8522828658
  },
  {
    "name": "BROUGH",
    "crs": "BUH",
    "latitude": 53.72696041,
    "longitude": -0.5787241533
  },
  {
    "name": "BROXBOURNE",
    "crs": "BXB",
    "latitude": 51.7469103971,
    "longitude": -0.0110866395
  },
  {
    "name": "BARRHILL",
    "crs": "BRL",
    "latitude": 55.0970046483,
    "longitude": -4.7817810548
  },
  {
    "name": "BARRY LINKS",
    "crs": "BYL",
    "latitude": 56.4931488847,
    "longitude": -2.7454417242
  },
  {
    "name": "BURSCOUGH BRIDGE",
    "crs": "BCB",
    "latitude": 53.605256558,
    "longitude": -2.8408798348
  },
  {
    "name": "BURSCOUGH JUNCTION",
    "crs": "BCJ",
    "latitude": 53.5975193573,
    "longitude": -2.8406052465
  },
  {
    "name": "BURNSIDE (SOUTH LANARKSHIRE)",
    "crs": "BUI",
    "latitude": 55.8169262802,
    "longitude": -4.2023893768
  },
  {
    "name": "BROADSTAIRS",
    "crs": "BSR",
    "latitude": 51.3606747535,
    "longitude": 1.43356069938
  },
  {
    "name": "BRISTOL TEMPLE MEADS",
    "crs": "",
    "latitude": 51.4491439007,
    "longitude": -2.5813152497
  },
  {
    "name": "BRISTOL PARKWAY",
    "crs": "BPW",
    "latitude": 51.5138012106,
    "longitude": -2.5421630639
  },
  {
    "name": "BARTON-ON-HUMBER",
    "crs": "BAU",
    "latitude": 53.6889186312,
    "longitude": -0.4434366557
  },
  {
    "name": "BURTON JOYCE",
    "crs": "BUJ",
    "latitude": 52.9834418403,
    "longitude": -1.0408775063
  },
  {
    "name": "BRENTWOOD",
    "crs": "BRE",
    "latitude": 51.6136052441,
    "longitude": 0.29958588082
  },
  {
    "name": "BRUCE GROVE",
    "crs": "BCV",
    "latitude": 51.5939591227,
    "longitude": -0.0698669882
  },
  {
    "name": "BRUNDALL",
    "crs": "BDA",
    "latitude": 52.6194835141,
    "longitude": 1.43929896138
  },
  {
    "name": "BRUNDALL GARDENS",
    "crs": "BGA",
    "latitude": 52.6234433098,
    "longitude": 1.41841639227
  },
  {
    "name": "BRUNSTANE",
    "crs": "BSU",
    "latitude": 55.942510735,
    "longitude": -3.1009860092
  },
  {
    "name": "BRUTON",
    "crs": "BRU",
    "latitude": 51.1116389251,
    "longitude": -2.4470734711
  },
  {
    "name": "BERWICK-UPON-TWEED",
    "crs": "BWK",
    "latitude": 55.7743372472,
    "longitude": -2.0109733276
  },
  {
    "name": "BROCKLEY WHINS",
    "crs": "BNR",
    "latitude": 54.9595440569,
    "longitude": -1.4613532495
  },
  {
    "name": "BRYN",
    "crs": "BYN",
    "latitude": 53.4998665292,
    "longitude": -2.6472136004
  },
  {
    "name": "BRAYSTONES",
    "crs": "BYS",
    "latitude": 54.4393599981,
    "longitude": -3.541825755
  },
  {
    "name": "BISHOP AUCKLAND",
    "crs": "",
    "latitude": 54.6571952683,
    "longitude": -1.6777149104
  },
  {
    "name": "BISHOP AUCKLAND",
    "crs": "",
    "latitude": 54.6571952271,
    "longitude": -1.6776994103
  },
  {
    "name": "BESCOT STADIUM",
    "crs": "BSC",
    "latitude": 52.5630931361,
    "longitude": -1.9911054766
  },
  {
    "name": "BEARSDEN",
    "crs": "BRN",
    "latitude": 55.917129334,
    "longitude": -4.3320201284
  },
  {
    "name": "BISHOPBRIGGS",
    "crs": "BBG",
    "latitude": 55.9038780936,
    "longitude": -4.2249147494
  },
  {
    "name": "BISHOPS STORTFORD",
    "crs": "BIS",
    "latitude": 51.8666913821,
    "longitude": 0.16489419614
  },
  {
    "name": "BASINGSTOKE",
    "crs": "",
    "latitude": 51.2680914515188,
    "longitude": -1.0868778131923
  },
  {
    "name": "BASINGSTOKE",
    "crs": "",
    "latitude": 51.268356913,
    "longitude": -1.087263719
  },
  {
    "name": "BISHOPS LYDEARD WS RWY",
    "crs": "BIB",
    "latitude": 51.0545864166,
    "longitude": -3.1943297593
  },
  {
    "name": "BISHOPSTONE (SUSSEX)",
    "crs": "BIP",
    "latitude": 50.7801435316,
    "longitude": 0.08275700866
  },
  {
    "name": "BISHOPSTONE (HILL RISE BY BUS)",
    "crs": "BST",
    "latitude": 50.7823173958,
    "longitude": 0.08441410707
  },
  {
    "name": "BESSES O' TH' BARN MTLK",
    "crs": "BOB",
    "latitude": 53.5413158063726,
    "longitude": -2.28666602456093
  },
  {
    "name": "BEARSTED",
    "crs": "BSD",
    "latitude": 51.2758214622,
    "longitude": 0.57758048241
  },
  {
    "name": "BURY ST EDMUNDS",
    "crs": "BSE",
    "latitude": 52.2537633423,
    "longitude": 0.71330680091
  },
  {
    "name": "BETCHWORTH",
    "crs": "",
    "latitude": 51.2452393219,
    "longitude": -0.2669548655
  },
  {
    "name": "BETCHWORTH",
    "crs": "",
    "latitude": 51.2481892084,
    "longitude": -0.2669729369
  },
  {
    "name": "BATHGATE",
    "crs": "BHG",
    "latitude": 55.897152204,
    "longitude": -3.636096071
  },
  {
    "name": "BETHNAL GREEN",
    "crs": "BET",
    "latitude": 51.5239172689,
    "longitude": -0.059567964
  },
  {
    "name": "BUTLERS LANE",
    "crs": "BUL",
    "latitude": 52.5924696212,
    "longitude": -1.8380201048
  },
  {
    "name": "BATTLESBRIDGE",
    "crs": "BLB",
    "latitude": 51.6248254025,
    "longitude": 0.56528563473
  },
  {
    "name": "BENTLEY (SOUTH YORKSHIRE)",
    "crs": "BYK",
    "latitude": 53.543936397,
    "longitude": -1.1509484758
  },
  {
    "name": "BATTERSBY",
    "crs": "BTT",
    "latitude": 54.4576799953,
    "longitude": -1.0929717486
  },
  {
    "name": "BUCKENHAM",
    "crs": "BUC",
    "latitude": 52.5977384129,
    "longitude": 1.47032550704
  },
  {
    "name": "BUDE BUS",
    "crs": "BUA",
    "latitude": 50.8283924475809,
    "longitude": -4.54735466801016
  },
  {
    "name": "BUGLE",
    "crs": "",
    "latitude": 50.4003487041,
    "longitude": -4.7921002
  },
  {
    "name": "BUILTH ROAD",
    "crs": "BHR",
    "latitude": 52.1693221937,
    "longitude": -3.427032587
  },
  {
    "name": "BUCKSHAW PARKWAY",
    "crs": "",
    "latitude": 53.6728413326799,
    "longitude": -2.66446669678238
  },
  {
    "name": "BULWELL",
    "crs": "BLW",
    "latitude": 52.9996954885,
    "longitude": -1.1962304399
  },
  {
    "name": "BURES",
    "crs": "BUE",
    "latitude": 51.9711619924,
    "longitude": 0.76914393197
  },
  {
    "name": "BURGESS HILL",
    "crs": "BUG",
    "latitude": 50.9536561164,
    "longitude": -0.1274127728
  },
  {
    "name": "BURLEY-IN-WHARFEDALE",
    "crs": "BUW",
    "latitude": 53.9081504875,
    "longitude": -1.753371916
  },
  {
    "name": "BURNLEY BARRACKS",
    "crs": "BUB",
    "latitude": 53.7908780901,
    "longitude": -2.2580857099
  },
  {
    "name": "BURNLEY CENTRAL",
    "crs": "BNC",
    "latitude": 53.793512142,
    "longitude": -2.2449710188
  },
  {
    "name": "BURNLEY MANCHESTER ROAD",
    "crs": "BYM",
    "latitude": 53.7849655179,
    "longitude": -2.2488672301
  },
  {
    "name": "BURSLEDON",
    "crs": "BUO",
    "latitude": 50.8836881917,
    "longitude": -1.3050322256
  },
  {
    "name": "BURTON-ON-TRENT",
    "crs": "BUT",
    "latitude": 52.8058154971,
    "longitude": -1.642459791
  },
  {
    "name": "BURY MTLK",
    "crs": "BUR",
    "latitude": 53.5911389813888,
    "longitude": -2.29712541704974
  },
  {
    "name": "BUSBY",
    "crs": "BUS",
    "latitude": 55.7803393911,
    "longitude": -4.2622007477
  },
  {
    "name": "POLLOKSHAWS WEST",
    "crs": "",
    "latitude": 55.8242663895434,
    "longitude": -4.30177752024604
  },
  {
    "name": "BUSHEY",
    "crs": "",
    "latitude": 51.6455815755,
    "longitude": -0.3847490781
  },
  {
    "name": "BUSHEY",
    "crs": "",
    "latitude": 51.6457513005,
    "longitude": -0.3853211909
  },
  {
    "name": "BUXTON (MARKET PLACE)",
    "crs": "BUZ",
    "latitude": 53.2602863348128,
    "longitude": -1.91301294646633
  },
  {
    "name": "BUXTON",
    "crs": "BUX",
    "latitude": 53.2607212488,
    "longitude": -1.9128633628
  },
  {
    "name": "BEXLEYHEATH",
    "crs": "BXH",
    "latitude": 51.4635001507,
    "longitude": 0.13373496165
  },
  {
    "name": "BUXTED",
    "crs": "BXD",
    "latitude": 50.9900127802,
    "longitude": 0.13143901164
  },
  {
    "name": "BYFLEET & NEW HAW",
    "crs": "BFN",
    "latitude": 51.3497966473,
    "longitude": -0.4813896879
  },
  {
    "name": "BYNEA",
    "crs": "BYE",
    "latitude": 51.672031702,
    "longitude": -4.0988807346
  },
  {
    "name": "CADOXTON",
    "crs": "CAD",
    "latitude": 51.412279561,
    "longitude": -3.2488953637
  },
  {
    "name": "CAERGWRLE",
    "crs": "CGW",
    "latitude": 53.1078631526,
    "longitude": -3.0329127657
  },
  {
    "name": "CAERAU (SQUARE)",
    "crs": "CSQ",
    "latitude": 51.6357992828176,
    "longitude": -3.65733618023964
  },
  {
    "name": "CALSTOCK",
    "crs": "CSK",
    "latitude": 50.4977971887,
    "longitude": -4.2089875374
  },
  {
    "name": "CAMBRIDGE",
    "crs": "CBG",
    "latitude": 52.1940672669,
    "longitude": 0.13745655272
  },
  {
    "name": "CAMBRIDGE NORTH",
    "crs": "CMB",
    "latitude": 52.2244819277,
    "longitude": 0.15847881449
  },
  {
    "name": "CAMELON",
    "crs": "",
    "latitude": 56.0060915674,
    "longitude": -3.8176051635
  },
  {
    "name": "CAMBRIDGE HEATH",
    "crs": "CBH",
    "latitude": 51.5319727046,
    "longitude": -0.0572789841
  },
  {
    "name": "CANLEY",
    "crs": "CNL",
    "latitude": 52.3992409126,
    "longitude": -1.5475747048
  },
  {
    "name": "CANNA",
    "crs": "CNA",
    "latitude": 57.0562556934927,
    "longitude": -6.49094641255149
  },
  {
    "name": "LONDON CANNON STREET",
    "crs": "CST",
    "latitude": 51.5113823215,
    "longitude": -0.090292899
  },
  {
    "name": "CARBIS BAY",
    "crs": "CBB",
    "latitude": 50.1970495562,
    "longitude": -5.4632630517
  },
  {
    "name": "CARDIFF BAY",
    "crs": "CDB",
    "latitude": 51.4671085596,
    "longitude": -3.1664028933
  },
  {
    "name": "CARDIFF QUEEN STREET",
    "crs": "CDQ",
    "latitude": 51.4819615328,
    "longitude": -3.1701805544
  },
  {
    "name": "CARFIN",
    "crs": "CRF",
    "latitude": 55.8073390696,
    "longitude": -3.956253673
  },
  {
    "name": "CARRICK-ON-SUIR",
    "crs": "CKU",
    "latitude": 52.3434313762716,
    "longitude": -7.50812200347762
  },
  {
    "name": "CARK & CARTMEL",
    "crs": "CAK",
    "latitude": 54.1779547827,
    "longitude": -2.9740636104
  },
  {
    "name": "CARLISLE",
    "crs": "CAR",
    "latitude": 54.8906518369,
    "longitude": -2.933191633
  },
  {
    "name": "CARMYLE",
    "crs": "CML",
    "latitude": 55.8343367826,
    "longitude": -4.1581801927
  },
  {
    "name": "CARRBRIDGE",
    "crs": "CAG",
    "latitude": 57.2795013293,
    "longitude": -3.8282028143
  },
  {
    "name": "CAERSWS",
    "crs": "CWS",
    "latitude": 52.5161240085,
    "longitude": -3.4324981479
  },
  {
    "name": "CASTLEFORD",
    "crs": "CFD",
    "latitude": 53.7240772163,
    "longitude": -1.3546525949
  },
  {
    "name": "CATERHAM",
    "crs": "CAT",
    "latitude": 51.2821414938,
    "longitude": -0.0783070406
  },
  {
    "name": "CATFORD BRIDGE",
    "crs": "CFB",
    "latitude": 51.4447407379,
    "longitude": -0.0247910932
  },
  {
    "name": "CATFORD",
    "crs": "CTF",
    "latitude": 51.4444067233,
    "longitude": -0.0263165147
  },
  {
    "name": "CATHAYS",
    "crs": "CYS",
    "latitude": 51.4888990407,
    "longitude": -3.1786833274
  },
  {
    "name": "CATTAL",
    "crs": "CTL",
    "latitude": 53.9974400483,
    "longitude": -1.3205349984
  },
  {
    "name": "WIRKSWORTH",
    "crs": "WIR",
    "latitude": 53.0826391789,
    "longitude": -1.5686620326
  },
  {
    "name": "ANTRIM",
    "crs": "ANM",
    "latitude": 54.6528783733539,
    "longitude": -6.26493704845368
  },
  {
    "name": "ATHLONE",
    "crs": "ATO",
    "latitude": 53.4128946413042,
    "longitude": -7.91692934078892
  },
  {
    "name": "ATHY",
    "crs": "ATY",
    "latitude": 52.9981027865952,
    "longitude": -6.94987422411107
  },
  {
    "name": "BALLYBROPHY (IRISH RAIL)",
    "crs": "BBY",
    "latitude": 52.899574842196,
    "longitude": -7.54881621808199
  },
  {
    "name": "BROADFORD (SKYE)",
    "crs": "",
    "latitude": 57.2414784336064,
    "longitude": -5.90143622992605
  },
  {
    "name": "BALLYMENA",
    "crs": "BMA",
    "latitude": 54.793498491783,
    "longitude": -6.35758438137331
  },
  {
    "name": "BRIDPORT",
    "crs": "BPO",
    "latitude": 50.7341084805916,
    "longitude": -2.76229562416799
  },
  {
    "name": "BROADWAY",
    "crs": "BWY",
    "latitude": 52.0358355302158,
    "longitude": -1.86291391053898
  },
  {
    "name": "CAHIR",
    "crs": "CAH",
    "latitude": 52.3687608345089,
    "longitude": -7.73186062107612
  },
  {
    "name": "CARLOW",
    "crs": "CAW",
    "latitude": 52.847694175836,
    "longitude": -6.88811812438417
  },
  {
    "name": "CIRENCESTER",
    "crs": "CCR",
    "latitude": 51.7167281240232,
    "longitude": -1.96665159390716
  },
  {
    "name": "COLERAINE",
    "crs": "CEI",
    "latitude": 55.1324327095441,
    "longitude": -6.67710501221771
  },
  {
    "name": "CARRICK-ON-SHANNON",
    "crs": "CKA",
    "latitude": 53.933659182946,
    "longitude": -7.94483666459148
  },
  {
    "name": "CLARA",
    "crs": "CLQ",
    "latitude": 53.3214611156048,
    "longitude": -7.57348730359533
  },
  {
    "name": "CRICKLADE BUS",
    "crs": "CRZ",
    "latitude": 51.640216959375,
    "longitude": -1.85543575499463
  },
  {
    "name": "DUBLIN PEARSE",
    "crs": "DBP",
    "latitude": 53.3249302103451,
    "longitude": -6.29643526764678
  },
  {
    "name": "DROMOD",
    "crs": "DMD",
    "latitude": 53.8457604006274,
    "longitude": -7.90188612300167
  },
  {
    "name": "DROGHEDA",
    "crs": "DRA",
    "latitude": 53.7153615940767,
    "longitude": -6.32102296698703
  },
  {
    "name": "DUNDALK",
    "crs": "DUK",
    "latitude": 53.999366589933,
    "longitude": -6.42677793591751
  },
  {
    "name": "DAVENTRY BUS",
    "crs": "DVR",
    "latitude": 52.2594867231079,
    "longitude": -1.15896737085888
  },
  {
    "name": "ENFIELD (IRELAND)",
    "crs": "EFD",
    "latitude": 53.4180480288059,
    "longitude": -6.80280860793344
  },
  {
    "name": "FARINGDON BUS",
    "crs": "FAX",
    "latitude": 51.6566677074048,
    "longitude": -1.58794792749579
  },
  {
    "name": "GOREY",
    "crs": "GOY",
    "latitude": 52.6818615020637,
    "longitude": -6.29216518698593
  },
  {
    "name": "GREYSTONES",
    "crs": "GSO",
    "latitude": 53.1300618078979,
    "longitude": -6.08250936498448
  },
  {
    "name": "KILDARE (IRISH RAIL)",
    "crs": "KDR",
    "latitude": 53.1534356040912,
    "longitude": -6.89291616661146
  },
  {
    "name": "KILKENNY",
    "crs": "KNY",
    "latitude": 52.6720234577335,
    "longitude": -7.2089345289439
  },
  {
    "name": "LISBURN",
    "crs": "LBN",
    "latitude": 54.5074077733808,
    "longitude": -6.0488109549701
  },
  {
    "name": "LONGFORD",
    "crs": "LFO",
    "latitude": 53.7078636929491,
    "longitude": -7.77629416334949
  },
  {
    "name": "LYME REGIS BUS X51/X53",
    "crs": "LPO",
    "latitude": 50.7247678727225,
    "longitude": -2.93357450769337
  },
  {
    "name": "MAYNOOTH",
    "crs": "MAE",
    "latitude": 53.3809492497705,
    "longitude": -6.60300448457259
  },
  {
    "name": "MUINE BHEAG (IRISH RAIL)",
    "crs": "MBH",
    "latitude": 52.7025532844656,
    "longitude": -6.91629021767879
  },
  {
    "name": "MANCHESTER CTLZ",
    "crs": "MCZ",
    "latitude": 53.478509253367,
    "longitude": -2.23501223325547
  },
  {
    "name": "EDGEWORTHSTOWN (CIE)",
    "crs": "MOM",
    "latitude": 53.682104502092,
    "longitude": -7.56048507576841
  },
  {
    "name": "MOLD BUS",
    "crs": "MOZ",
    "latitude": 53.1676413834781,
    "longitude": -3.14280132062755
  },
  {
    "name": "MULLINGAR",
    "crs": "MUL",
    "latitude": 53.512760120171,
    "longitude": -7.32683232381658
  },
  {
    "name": "NEWBRIDGE (IRELAND) <CIE>",
    "crs": "NBG",
    "latitude": 53.1935154625129,
    "longitude": -6.79260993683562
  },
  {
    "name": "NEWRY",
    "crs": "NWY",
    "latitude": 54.1735234269378,
    "longitude": -6.33805485433527
  },
  {
    "name": "ONLEY (BY BUS)",
    "crs": "ONZ",
    "latitude": 52.343635514812,
    "longitude": -1.23810966243969
  },
  {
    "name": "PORTREE BUS",
    "crs": "",
    "latitude": 57.4128280667472,
    "longitude": -6.19294586367228
  },
  {
    "name": "PORTARLINGTON (IRISH RAIL)",
    "crs": "PRO",
    "latitude": 53.1593455154776,
    "longitude": -7.17805438221772
  },
  {
    "name": "PORTLAOISE",
    "crs": "PTO",
    "latitude": 53.0390512137882,
    "longitude": -7.25318132434745
  },
  {
    "name": "GOLFLINK 2015",
    "crs": "QGL",
    "latitude": 56.3445095765083,
    "longitude": -2.80725699525569
  },
  {
    "name": "HAMPTN CT FLOWER",
    "crs": "QHC",
    "latitude": 51.4037368921992,
    "longitude": -0.33802543218181
  },
  {
    "name": "ROSCREA",
    "crs": "RCR",
    "latitude": 52.9612382254712,
    "longitude": -7.76543316510355
  },
  {
    "name": "RATHDRUM (IRISH RAIL)",
    "crs": "RDU",
    "latitude": 52.9371163440841,
    "longitude": -6.19830182280737
  },
  {
    "name": "ROSSLARE STRAND",
    "crs": "RSS",
    "latitude": 52.2820374378041,
    "longitude": -6.40005581100099
  },
  {
    "name": "SIDMOUTH BUS",
    "crs": "SDT",
    "latitude": 50.6805444041187,
    "longitude": -3.23985115772616
  },
  {
    "name": "TEMPLEMORE",
    "crs": "TEM",
    "latitude": 52.7802008756307,
    "longitude": -7.78593740644368
  },
  {
    "name": "THORNASTOWN",
    "crs": "THM",
    "latitude": 52.5236673357181,
    "longitude": -7.10279731975569
  },
  {
    "name": "TETBURY",
    "crs": "TTY",
    "latitude": 51.6383950868939,
    "longitude": -2.16178721712208
  },
  {
    "name": "TULLAMORE",
    "crs": "TUM",
    "latitude": 53.2629957245238,
    "longitude": -7.47579133264629
  },
  {
    "name": "THURLES",
    "crs": "TUS",
    "latitude": 52.6728745951994,
    "longitude": -7.77170294156147
  },
  {
    "name": "CAUSELAND",
    "crs": "CAU",
    "latitude": 50.40569032,
    "longitude": -4.4664478437
  },
  {
    "name": "CASTLE BAR PARK",
    "crs": "CBP",
    "latitude": 51.5229305014,
    "longitude": -0.3315488623
  },
  {
    "name": "COLWYN BAY",
    "crs": "CWB",
    "latitude": 53.2963588414,
    "longitude": -3.7254165729
  },
  {
    "name": "CROWBOROUGH",
    "crs": "COH",
    "latitude": 51.0463815649,
    "longitude": 0.18801250436
  },
  {
    "name": "COBHAM & STOKE D'ABERNON",
    "crs": "CSD",
    "latitude": 51.3181007378,
    "longitude": -0.389346295
  },
  {
    "name": "CAMBORNE",
    "crs": "CBN",
    "latitude": 50.2104362469,
    "longitude": -5.2974107983
  },
  {
    "name": "CRANBROOK (DEVON)",
    "crs": "CBK",
    "latitude": 50.7500913549,
    "longitude": -3.420415351
  },
  {
    "name": "CASTLE CARY",
    "crs": "CLC",
    "latitude": 51.0998147867,
    "longitude": -2.522794334
  },
  {
    "name": "CATHCART",
    "crs": "CCT",
    "latitude": 55.8176683405,
    "longitude": -4.2605360692
  },
  {
    "name": "CALDICOT",
    "crs": "CDT",
    "latitude": 51.5847902463,
    "longitude": -2.7605734788
  },
  {
    "name": "CARDENDEN",
    "crs": "CDD",
    "latitude": 56.1412554153,
    "longitude": -3.2616418761
  },
  {
    "name": "CARDONALD",
    "crs": "CDO",
    "latitude": 55.8525684049,
    "longitude": -4.3406924604
  },
  {
    "name": "CARDROSS",
    "crs": "CDR",
    "latitude": 55.9603786501,
    "longitude": -4.653073203
  },
  {
    "name": "CEFN-Y-BEDD",
    "crs": "CYB",
    "latitude": 53.0987999759,
    "longitude": -3.0310527294
  },
  {
    "name": "CROFTFOOT",
    "crs": "CFF",
    "latitude": 55.8182564111,
    "longitude": -4.228324643
  },
  {
    "name": "CROSSFLATTS",
    "crs": "CFL",
    "latitude": 53.8584658199,
    "longitude": -1.8448859775
  },
  {
    "name": "CROFTON PARK",
    "crs": "CFT",
    "latitude": 51.4551892025,
    "longitude": -0.0365029624
  },
  {
    "name": "CHAFFORD HUNDRED LAKESIDE",
    "crs": "CFH",
    "latitude": 51.4855572378,
    "longitude": 0.28744702092
  },
  {
    "name": "CHAPELTON (DEVON)",
    "crs": "CPN",
    "latitude": 51.01653522,
    "longitude": -4.0247218832
  },
  {
    "name": "CHARTHAM",
    "crs": "CRT",
    "latitude": 51.2572658675,
    "longitude": 1.01803940064
  },
  {
    "name": "CHASSEN ROAD",
    "crs": "CSR",
    "latitude": 53.4461592959,
    "longitude": -2.3682328719
  },
  {
    "name": "CHATHAM",
    "crs": "CTM",
    "latitude": 51.3803785894,
    "longitude": 0.52115082745
  },
  {
    "name": "CHARLBURY",
    "crs": "CBY",
    "latitude": 51.8724275375,
    "longitude": -1.4896937719
  },
  {
    "name": "CHICHESTER",
    "crs": "CCH",
    "latitude": 50.8320534304,
    "longitude": -0.7817488625
  },
  {
    "name": "CHEADLE HULME",
    "crs": "CHU",
    "latitude": 53.3759287425,
    "longitude": -2.1883026998
  },
  {
    "name": "CHEDDINGTON",
    "crs": "CED",
    "latitude": 51.8579182438,
    "longitude": -0.6621517866
  },
  {
    "name": "CHADWELL HEATH",
    "crs": "CTH",
    "latitude": 51.5680387614,
    "longitude": 0.128958453
  },
  {
    "name": "CHEAM",
    "crs": "CHE",
    "latitude": 51.3554789193,
    "longitude": -0.2141674444
  },
  {
    "name": "CHAPEL-EN-LE-FRITH",
    "crs": "CEF",
    "latitude": 53.31223083,
    "longitude": -1.91876238
  },
  {
    "name": "CHELFORD (CHESHIRE)",
    "crs": "CEL",
    "latitude": 53.2703098373,
    "longitude": -2.2805770063
  },
  {
    "name": "CHEPSTOW",
    "crs": "CPW",
    "latitude": 51.6401792332,
    "longitude": -2.6719052083
  },
  {
    "name": "CHESHUNT",
    "crs": "CHN",
    "latitude": 51.7028761888,
    "longitude": -0.0239596411
  },
  {
    "name": "CHETNOLE",
    "crs": "CNO",
    "latitude": 50.8663630305,
    "longitude": -2.5729255765
  },
  {
    "name": "CHESTERFIELD",
    "crs": "CHD",
    "latitude": 53.2382201444,
    "longitude": -1.4201158217
  },
  {
    "name": "CHURCH FENTON",
    "crs": "CHF",
    "latitude": 53.8266006354,
    "longitude": -1.2275887722
  },
  {
    "name": "CHATHILL",
    "crs": "CHT",
    "latitude": 55.5367328442,
    "longitude": -1.7063751319
  },
  {
    "name": "CHINGFORD",
    "crs": "CHI",
    "latitude": 51.633086672,
    "longitude": 0.00989712465
  },
  {
    "name": "CHIPPENHAM",
    "crs": "",
    "latitude": 51.4624879631,
    "longitude": -2.1153938875
  },
  {
    "name": "CHIRK",
    "crs": "CRK",
    "latitude": 52.9330871805,
    "longitude": -3.0656431073
  },
  {
    "name": "CHISWICK",
    "crs": "CHK",
    "latitude": 51.4811366163,
    "longitude": -0.2678351279
  },
  {
    "name": "CHALFONT & LATIMER",
    "crs": "CFO",
    "latitude": 51.6681084369,
    "longitude": -0.5605263164
  },
  {
    "name": "CHALKWELL",
    "crs": "CHW",
    "latitude": 51.5387191241,
    "longitude": 0.67059269474
  },
  {
    "name": "CHELMSFORD",
    "crs": "CHM",
    "latitude": 51.7363726521,
    "longitude": 0.46857219674
  },
  {
    "name": "CHELSFIELD",
    "crs": "CLD",
    "latitude": 51.3562559371,
    "longitude": 0.10906990391
  },
  {
    "name": "CHELTENHAM SPA",
    "crs": "CNM",
    "latitude": 51.8973972883,
    "longitude": -2.0996199551
  },
  {
    "name": "CHELT RACES BUS",
    "crs": "CRC",
    "latitude": 51.9172140125423,
    "longitude": -2.06973500200419
  },
  {
    "name": "CHILWORTH",
    "crs": "CHL",
    "latitude": 51.2152131687,
    "longitude": -0.5248240567
  },
  {
    "name": "CHINLEY",
    "crs": "",
    "latitude": 53.3402899109,
    "longitude": -1.9439407185
  },
  {
    "name": "CHINLEY",
    "crs": "",
    "latitude": 53.3403044129396,
    "longitude": -1.94439034014365
  },
  {
    "name": "CHIPPING NORTON BUS",
    "crs": "CPG",
    "latitude": 51.939738144815,
    "longitude": -1.54608514243191
  },
  {
    "name": "CHOLSEY",
    "crs": "CHO",
    "latitude": 51.5702023183,
    "longitude": -1.1580228857
  },
  {
    "name": "BUCKSHAW PARKWAY",
    "crs": "",
    "latitude": 53.6733409969,
    "longitude": -2.6608298719
  },
  {
    "name": "CHORLEY",
    "crs": "CRL",
    "latitude": 53.6525360699,
    "longitude": -2.6268406467
  },
  {
    "name": "CHURCH & OSWALDTWISTLE",
    "crs": "CTW",
    "latitude": 53.7505205457,
    "longitude": -2.3912118598
  },
  {
    "name": "CHAPELTOWN (SOUTH YORKSHIRE)",
    "crs": "CLN",
    "latitude": 53.4623362527,
    "longitude": -1.4662752287
  },
  {
    "name": "CHAPPEL & WAKES COLNE",
    "crs": "CWC",
    "latitude": 51.9259059748,
    "longitude": 0.75850128553
  },
  {
    "name": "CHRISTCHURCH",
    "crs": "CHR",
    "latitude": 50.7382141564,
    "longitude": -1.7845459431
  },
  {
    "name": "CHARING CROSS (GLASGOW)",
    "crs": "CHC",
    "latitude": 55.8646817285,
    "longitude": -4.2698199535
  },
  {
    "name": "CHRISTS HOSPITAL",
    "crs": "",
    "latitude": 51.0506799602288,
    "longitude": -0.363530561160603
  },
  {
    "name": "CHRISTS HOSPITAL",
    "crs": "",
    "latitude": 51.0506860126,
    "longitude": -0.3635562617
  },
  {
    "name": "CHORLEYWOOD",
    "crs": "CLW",
    "latitude": 51.6542486165,
    "longitude": -0.5183199818
  },
  {
    "name": "LONDON CHARING CROSS",
    "crs": "CHX",
    "latitude": 51.5080273938,
    "longitude": -0.1248021087
  },
  {
    "name": "CHIPSTEAD",
    "crs": "CHP",
    "latitude": 51.3092773123,
    "longitude": -0.1695031461
  },
  {
    "name": "CHISLEHURST",
    "crs": "CIT",
    "latitude": 51.4055565444,
    "longitude": 0.05741805551
  },
  {
    "name": "CHESTER ROAD",
    "crs": "CRD",
    "latitude": 52.5356461451,
    "longitude": -1.8324792871
  },
  {
    "name": "CHESSINGTON NORTH",
    "crs": "CSN",
    "latitude": 51.364041065,
    "longitude": -0.3006990598
  },
  {
    "name": "CHESSINGTON SOUTH",
    "crs": "CSS",
    "latitude": 51.3565503145,
    "longitude": -0.308157496
  },
  {
    "name": "CHESTER",
    "crs": "CTR",
    "latitude": 53.1966951373,
    "longitude": -2.8795935378
  },
  {
    "name": "CHESTFIELD & SWALECLIFFE",
    "crs": "CSW",
    "latitude": 51.3602412437,
    "longitude": 1.06693071822
  },
  {
    "name": "CHATELHERAULT",
    "crs": "CTE",
    "latitude": 55.76521874,
    "longitude": -4.0046743776
  },
  {
    "name": "CHERRY TREE",
    "crs": "CYT",
    "latitude": 53.7328704129,
    "longitude": -2.5183788292
  },
  {
    "name": "CHERTSEY",
    "crs": "CHY",
    "latitude": 51.387068859,
    "longitude": -0.509316546
  },
  {
    "name": "CILMERI",
    "crs": "CIM",
    "latitude": 52.1505295447,
    "longitude": -3.4565410577
  },
  {
    "name": "CORKERHILL",
    "crs": "CKH",
    "latitude": 55.8375008922,
    "longitude": -4.3342925012
  },
  {
    "name": "CLACTON-ON-SEA",
    "crs": "CLT",
    "latitude": 51.7940028114,
    "longitude": 1.15409182075
  },
  {
    "name": "CLANDON",
    "crs": "CLA",
    "latitude": 51.2640052574,
    "longitude": -0.5027660291
  },
  {
    "name": "CLAPTON",
    "crs": "CPT",
    "latitude": 51.5616439327,
    "longitude": -0.0570245749
  },
  {
    "name": "CLARBESTON ROAD",
    "crs": "CLR",
    "latitude": 51.8516651814,
    "longitude": -4.8835477343
  },
  {
    "name": "CLAVERDON",
    "crs": "CLV",
    "latitude": 52.277090433,
    "longitude": -1.6965598244
  },
  {
    "name": "HYTHE (ESSEX)",
    "crs": "HYH",
    "latitude": 51.8856395256,
    "longitude": 0.9275276909
  },
  {
    "name": "COLCHESTER TOWN",
    "crs": "CET",
    "latitude": 51.8864558978,
    "longitude": 0.90476263648
  },
  {
    "name": "COLCHESTER",
    "crs": "COL",
    "latitude": 51.9007137929,
    "longitude": 0.89259822672
  },
  {
    "name": "CALEDONIAN ROAD & BARNSBURY",
    "crs": "CIR",
    "latitude": 51.5430407954,
    "longitude": -0.116729169
  },
  {
    "name": "CALDERCRUIX",
    "crs": "CAC",
    "latitude": 55.887942978,
    "longitude": -3.8877110868
  },
  {
    "name": "CLELAND",
    "crs": "CEA",
    "latitude": 55.8046476272,
    "longitude": -3.9102439965
  },
  {
    "name": "CLIFTON DOWN",
    "crs": "CFN",
    "latitude": 51.4645445781,
    "longitude": -2.6117408388
  },
  {
    "name": "COLLINGHAM",
    "crs": "CLM",
    "latitude": 53.144086177,
    "longitude": -0.7503938449
  },
  {
    "name": "CLITHEROE",
    "crs": "CLH",
    "latitude": 53.8734661114,
    "longitude": -2.3943363152
  },
  {
    "name": "CHILHAM",
    "crs": "CIL",
    "latitude": 51.2446110467,
    "longitude": 0.97589572012
  },
  {
    "name": "CLOCK HOUSE",
    "crs": "CLK",
    "latitude": 51.4085864136,
    "longitude": -0.0406569819
  },
  {
    "name": "CLONMEL",
    "crs": "CLX",
    "latitude": 52.354401576439,
    "longitude": -7.65649217487122
  },
  {
    "name": "CLAPHAM HIGH STREET",
    "crs": "CLP",
    "latitude": 51.4654809056,
    "longitude": -0.1325216058
  },
  {
    "name": "CLAPHAM JUNCTION",
    "crs": "",
    "latitude": 51.4641869002,
    "longitude": -0.1702213991
  },
  {
    "name": "CLAPHAM JUNCTION",
    "crs": "",
    "latitude": 51.4641880229,
    "longitude": -0.1702933367
  },
  {
    "name": "CLAPHAM JUNCTION",
    "crs": "",
    "latitude": 51.4641877984,
    "longitude": -0.1702789492
  },
  {
    "name": "CLAPHAM JUNCTION",
    "crs": "",
    "latitude": 51.4641875738,
    "longitude": -0.1702645617
  },
  {
    "name": "CLAPHAM JUNCTION",
    "crs": "",
    "latitude": 51.4641869937103,
    "longitude": -0.170268650833031
  },
  {
    "name": "CLAPHAM JUNCTION",
    "crs": "",
    "latitude": 51.4641873493,
    "longitude": -0.1702501741
  },
  {
    "name": "CLAPHAM (NORTH YORKSHIRE)",
    "crs": "CPY",
    "latitude": 54.105385808,
    "longitude": -2.4103759392
  },
  {
    "name": "CLARKSTON",
    "crs": "CKS",
    "latitude": 55.7893483818,
    "longitude": -4.275643764
  },
  {
    "name": "CHESTER-LE-STREET",
    "crs": "CLS",
    "latitude": 54.8545944094,
    "longitude": -1.5780152501
  },
  {
    "name": "CLEETHORPES",
    "crs": "CLE",
    "latitude": 53.5619061318,
    "longitude": -0.0292208451
  },
  {
    "name": "CLIFTON (MANCHESTER)",
    "crs": "CLI",
    "latitude": 53.5224895623,
    "longitude": -2.3147463351
  },
  {
    "name": "COLWALL",
    "crs": "CWL",
    "latitude": 52.079868395,
    "longitude": -2.3569500539
  },
  {
    "name": "CLYDEBANK",
    "crs": "CYK",
    "latitude": 55.9006911346,
    "longitude": -4.4044138717
  },
  {
    "name": "CLAYGATE",
    "crs": "CLG",
    "latitude": 51.3612140122,
    "longitude": -0.348247717
  },
  {
    "name": "CLUNDERWEN",
    "crs": "CUW",
    "latitude": 51.8405398045,
    "longitude": -4.7318418064
  },
  {
    "name": "CWMBACH",
    "crs": "CMH",
    "latitude": 51.701927276,
    "longitude": -3.4137230824
  },
  {
    "name": "CAMBERLEY",
    "crs": "CAM",
    "latitude": 51.3363276167,
    "longitude": -0.7442716314
  },
  {
    "name": "CUMBERNAULD",
    "crs": "CUB",
    "latitude": 55.9420258408,
    "longitude": -3.9803343317
  },
  {
    "name": "CAMBUSLANG",
    "crs": "CBL",
    "latitude": 55.8196060698,
    "longitude": -4.1730084171
  },
  {
    "name": "CAMDEN ROAD",
    "crs": "CMD",
    "latitude": 51.541790787,
    "longitude": -0.138700821
  },
  {
    "name": "CROMER",
    "crs": "CMR",
    "latitude": 52.9300844817,
    "longitude": 1.29282454525
  },
  {
    "name": "CARMARTHEN",
    "crs": "CMN",
    "latitude": 51.853352568,
    "longitude": -4.3059608974
  },
  {
    "name": "CAMPBELTOWN",
    "crs": "CBT",
    "latitude": 55.4235403336139,
    "longitude": -5.59980824890233
  },
  {
    "name": "CANNOCK",
    "crs": "CAO",
    "latitude": 52.6861608226,
    "longitude": -2.0221472518
  },
  {
    "name": "CANADA WATER",
    "crs": "ZCW",
    "latitude": 51.4979900886,
    "longitude": -0.049719754
  },
  {
    "name": "CANONBURY",
    "crs": "",
    "latitude": 51.5487322475,
    "longitude": -0.0921908482
  },
  {
    "name": "CANONBURY",
    "crs": "",
    "latitude": 51.5483683790553,
    "longitude": -0.091891185507524
  },
  {
    "name": "CAIRNRYAN",
    "crs": "CRP",
    "latitude": 54.9628654498989,
    "longitude": -5.01621749356781
  },
  {
    "name": "CARNOUSTIE",
    "crs": "CAN",
    "latitude": 56.5005633653,
    "longitude": -2.7066003665
  },
  {
    "name": "CANTERBURY EAST",
    "crs": "CBE",
    "latitude": 51.2742678195,
    "longitude": 1.0759685662
  },
  {
    "name": "CANTERBURY WEST",
    "crs": "CBW",
    "latitude": 51.284269335,
    "longitude": 1.07530326787
  },
  {
    "name": "CANTLEY",
    "crs": "CNY",
    "latitude": 52.5787481248,
    "longitude": 1.51341232631
  },
  {
    "name": "CARNTYNE",
    "crs": "CAY",
    "latitude": 55.8548726847,
    "longitude": -4.1785722011
  },
  {
    "name": "COATBRIDGE CENTRAL",
    "crs": "",
    "latitude": 55.8625055056,
    "longitude": -4.0318967673
  },
  {
    "name": "COATBRIDGE SUNNYSIDE",
    "crs": "CBS",
    "latitude": 55.8668338758,
    "longitude": -4.0282870998
  },
  {
    "name": "COATBRIDGE D.G.L.",
    "crs": "",
    "latitude": 55.8631653931778,
    "longitude": -4.03240004904028
  },
  {
    "name": "COATDYKE",
    "crs": "COA",
    "latitude": 55.8643400199,
    "longitude": -4.0049843813
  },
  {
    "name": "COODEN BEACH",
    "crs": "COB",
    "latitude": 50.8333724821,
    "longitude": 0.42685884937
  },
  {
    "name": "CODSALL",
    "crs": "CSL",
    "latitude": 52.6272880444,
    "longitude": -2.2017628153
  },
  {
    "name": "COGAN",
    "crs": "CGN",
    "latitude": 51.4459923008,
    "longitude": -3.1890898301
  },
  {
    "name": "COOKSBRIDGE",
    "crs": "CBR",
    "latitude": 50.9037564866,
    "longitude": -0.009202668
  },
  {
    "name": "COLESHILL PARKWAY",
    "crs": "CEH",
    "latitude": 52.5165264314,
    "longitude": -1.7081772159
  },
  {
    "name": "COLL",
    "crs": "CLO",
    "latitude": 56.6144187617792,
    "longitude": -6.5214416231143
  },
  {
    "name": "COLNE",
    "crs": "CNE",
    "latitude": 53.8547425052,
    "longitude": -2.1818590598
  },
  {
    "name": "COLONSAY",
    "crs": "CYA",
    "latitude": 56.0687158651376,
    "longitude": -6.18226326614678
  },
  {
    "name": "COULSDON SOUTH",
    "crs": "CDS",
    "latitude": 51.3158381493,
    "longitude": -0.1378872138
  },
  {
    "name": "COULSDON TOWN",
    "crs": "CDN",
    "latitude": 51.3220426429,
    "longitude": -0.1344641509
  },
  {
    "name": "RUGELEY TRENT VALLEY",
    "crs": "",
    "latitude": 52.7694912973247,
    "longitude": -1.93029174774167
  },
  {
    "name": "COMBE (OXON)",
    "crs": "CME",
    "latitude": 51.8325934454,
    "longitude": -1.3940731898
  },
  {
    "name": "COMMONDALE",
    "crs": "COM",
    "latitude": 54.4812740984,
    "longitude": -0.9751479151
  },
  {
    "name": "CONISBROUGH",
    "crs": "CNS",
    "latitude": 53.48930904,
    "longitude": -1.2343313796
  },
  {
    "name": "CONGLETON",
    "crs": "CNG",
    "latitude": 53.157854282,
    "longitude": -2.1925799867
  },
  {
    "name": "CONNEL FERRY",
    "crs": "CON",
    "latitude": 56.4523526911,
    "longitude": -5.3854409168
  },
  {
    "name": "CONON BRIDGE",
    "crs": "CBD",
    "latitude": 57.5617514528,
    "longitude": -4.4404053167
  },
  {
    "name": "CONONLEY",
    "crs": "CEY",
    "latitude": 53.9175701157,
    "longitude": -2.0120676459
  },
  {
    "name": "CONWY",
    "crs": "CNW",
    "latitude": 53.2801017104,
    "longitude": -3.8305242024
  },
  {
    "name": "COOKHAM",
    "crs": "COO",
    "latitude": 51.557462722,
    "longitude": -0.7220789851
  },
  {
    "name": "COOMBE JUNCTION HALT",
    "crs": "COE",
    "latitude": 50.4459196738,
    "longitude": -4.4818512319
  },
  {
    "name": "COPPLESTONE",
    "crs": "COP",
    "latitude": 50.8144665383,
    "longitude": -3.7515717072
  },
  {
    "name": "CORBY",
    "crs": "COR",
    "latitude": 52.4888513909,
    "longitude": -0.6883353167
  },
  {
    "name": "CORPACH",
    "crs": "CPA",
    "latitude": 56.8428268989,
    "longitude": -5.1219564928
  },
  {
    "name": "CORROUR",
    "crs": "CRR",
    "latitude": 56.7602135952,
    "longitude": -4.6906001953
  },
  {
    "name": "CORYTON",
    "crs": "COY",
    "latitude": 51.5204360165,
    "longitude": -3.2318178819
  },
  {
    "name": "COSELEY",
    "crs": "CSY",
    "latitude": 52.5450824965,
    "longitude": -2.0857774829
  },
  {
    "name": "COSFORD",
    "crs": "COS",
    "latitude": 52.6448338747,
    "longitude": -2.3002746676
  },
  {
    "name": "COSHAM",
    "crs": "CSA",
    "latitude": 50.8419241157,
    "longitude": -1.0673286837
  },
  {
    "name": "COTTINGLEY",
    "crs": "COT",
    "latitude": 53.7678166313,
    "longitude": -1.5877080424
  },
  {
    "name": "COVENTRY ARENA",
    "crs": "CAA",
    "latitude": 52.4477329466,
    "longitude": -1.494124546
  },
  {
    "name": "COVENTRY",
    "crs": "",
    "latitude": 52.4008284144724,
    "longitude": -1.51345048159333
  },
  {
    "name": "COVENTRY",
    "crs": "",
    "latitude": 52.4008136445,
    "longitude": -1.513459614
  },
  {
    "name": "COWDEN CROSSROADS (BY BUS)",
    "crs": "COC",
    "latitude": 51.1506742527,
    "longitude": 0.10096952051
  },
  {
    "name": "COWDEN (KENT)",
    "crs": "CWN",
    "latitude": 51.1556372421,
    "longitude": 0.11003281206
  },
  {
    "name": "EAST COWES",
    "crs": "ECW",
    "latitude": 50.7587286408906,
    "longitude": -1.29106643595065
  },
  {
    "name": "WEST COWES",
    "crs": "",
    "latitude": 50.7623597961339,
    "longitude": -1.29668307640153
  },
  {
    "name": "WEST COWES HOVERPORT",
    "crs": "",
    "latitude": 50.7623597961339,
    "longitude": -1.29668307640153
  },
  {
    "name": "CAPENHURST",
    "crs": "CPU",
    "latitude": 53.2601735805,
    "longitude": -2.9422847823
  },
  {
    "name": "CRADLEY HEATH",
    "crs": "CRA",
    "latitude": 52.4696535631,
    "longitude": -2.0904881333
  },
  {
    "name": "CRAVEN ARMS",
    "crs": "CRV",
    "latitude": 52.4425387606,
    "longitude": -2.8374218714
  },
  {
    "name": "CRAWLEY",
    "crs": "CRW",
    "latitude": 51.1122138025,
    "longitude": -0.1866728564
  },
  {
    "name": "CORBRIDGE",
    "crs": "CRB",
    "latitude": 54.9662608745,
    "longitude": -2.0184000743
  },
  {
    "name": "CORKICKLE",
    "crs": "CKL",
    "latitude": 54.5416793299,
    "longitude": -3.5821640485
  },
  {
    "name": "CARDIFF CENTRAL BUS STN",
    "crs": "CCB",
    "latitude": 51.4761239120933,
    "longitude": -3.17922664736679
  },
  {
    "name": "CARDIFF CENTRAL",
    "crs": "CDF",
    "latitude": 51.4760253899,
    "longitude": -3.1793017402
  },
  {
    "name": "CREDITON",
    "crs": "CDI",
    "latitude": 50.7833026872,
    "longitude": -3.6467775693
  },
  {
    "name": "CRESSING (ESSEX)",
    "crs": "CES",
    "latitude": 51.852336706,
    "longitude": 0.57796116785
  },
  {
    "name": "CREWE",
    "crs": "",
    "latitude": 53.089639575982,
    "longitude": -2.43296948742953
  },
  {
    "name": "CREWE",
    "crs": "",
    "latitude": 53.0896248672,
    "longitude": -2.4329688335
  },
  {
    "name": "CRAYFORD",
    "crs": "CRY",
    "latitude": 51.4482799065,
    "longitude": 0.17893616876
  },
  {
    "name": "CRAIGENDORAN",
    "crs": "CGD",
    "latitude": 55.9947960434,
    "longitude": -4.7112437262
  },
  {
    "name": "CRAIGNURE (MULL)",
    "crs": "CRU",
    "latitude": 56.4714691857832,
    "longitude": -5.70663603484095
  },
  {
    "name": "CREWS HILL",
    "crs": "CWH",
    "latitude": 51.6844858184,
    "longitude": -0.1068870149
  },
  {
    "name": "CRICCIETH",
    "crs": "CCC",
    "latitude": 52.9184104941,
    "longitude": -4.2375119213
  },
  {
    "name": "CRICKLEWOOD",
    "crs": "CRI",
    "latitude": 51.5584529595,
    "longitude": -0.2126765563
  },
  {
    "name": "CREWKERNE",
    "crs": "CKN",
    "latitude": 50.873535591,
    "longitude": -2.7784960152
  },
  {
    "name": "CARLUKE",
    "crs": "CLU",
    "latitude": 55.7312648908,
    "longitude": -3.84892484
  },
  {
    "name": "CHARLTON",
    "crs": "CTN",
    "latitude": 51.4868132882,
    "longitude": 0.03125757663
  },
  {
    "name": "CRAMLINGTON",
    "crs": "CRM",
    "latitude": 55.08776801,
    "longitude": -1.5985949452
  },
  {
    "name": "CAMELON",
    "crs": "",
    "latitude": 56.0067231535868,
    "longitude": -3.8169870112814
  },
  {
    "name": "CARNFORTH",
    "crs": "CNF",
    "latitude": 54.1296779633,
    "longitude": -2.7712324041
  },
  {
    "name": "CHARING (KENT)",
    "crs": "CHG",
    "latitude": 51.208099312,
    "longitude": 0.79033127776
  },
  {
    "name": "CRIANLARICH",
    "crs": "CNR",
    "latitude": 56.3904761331,
    "longitude": -4.6184335315
  },
  {
    "name": "CROOKSTON",
    "crs": "CKT",
    "latitude": 55.8423130233,
    "longitude": -4.364674969
  },
  {
    "name": "CROMFORD",
    "crs": "CMF",
    "latitude": 53.1129321073,
    "longitude": -1.5491618467
  },
  {
    "name": "CROSSHILL",
    "crs": "COI",
    "latitude": 55.833285156,
    "longitude": -4.2568112807
  },
  {
    "name": "CROSTON",
    "crs": "CSO",
    "latitude": 53.6675600786,
    "longitude": -2.7777497057
  },
  {
    "name": "CROUCH HILL",
    "crs": "CRH",
    "latitude": 51.571301879,
    "longitude": -0.1171487389
  },
  {
    "name": "CROWLE",
    "crs": "CWE",
    "latitude": 53.5897331383,
    "longitude": -0.8173585581
  },
  {
    "name": "CROY",
    "crs": "CRO",
    "latitude": 55.955677333,
    "longitude": -4.035975959
  },
  {
    "name": "CAERPHILLY",
    "crs": "CPH",
    "latitude": 51.5715771126,
    "longitude": -3.2184819894
  },
  {
    "name": "CARPENDERS PARK",
    "crs": "CPK",
    "latitude": 51.628351151,
    "longitude": -0.3859390315
  },
  {
    "name": "CARSHALTON BEECHES",
    "crs": "CSB",
    "latitude": 51.3574109565,
    "longitude": -0.1697969652
  },
  {
    "name": "CARSHALTON",
    "crs": "CSH",
    "latitude": 51.3684543138,
    "longitude": -0.1663684564
  },
  {
    "name": "CROSSKEYS",
    "crs": "CKY",
    "latitude": 51.620901863,
    "longitude": -3.1261699232
  },
  {
    "name": "CROSSMYLOOF",
    "crs": "CMY",
    "latitude": 55.833945625,
    "longitude": -4.2843173954
  },
  {
    "name": "CRESSINGTON",
    "crs": "CSG",
    "latitude": 53.3587489882,
    "longitude": -2.912002865
  },
  {
    "name": "CARSTAIRS",
    "crs": "",
    "latitude": 55.6910463416,
    "longitude": -3.6684732505
  },
  {
    "name": "CARSTAIRS",
    "crs": "",
    "latitude": 55.6907084474089,
    "longitude": -3.66865784850696
  },
  {
    "name": "CARLTON",
    "crs": "CTO",
    "latitude": 52.9650872622,
    "longitude": -1.0786549154
  },
  {
    "name": "CARTSDYKE",
    "crs": "CDY",
    "latitude": 55.9422131271,
    "longitude": -4.7315907159
  },
  {
    "name": "CRUMPSALL MTLK",
    "crs": "CRJ",
    "latitude": 53.5171440205024,
    "longitude": -2.24276663715683
  },
  {
    "name": "CROWHURST",
    "crs": "CWU",
    "latitude": 50.8885793493,
    "longitude": 0.50133662835
  },
  {
    "name": "CRESWELL",
    "crs": "CWD",
    "latitude": 53.2641124458,
    "longitude": -1.2163947387
  },
  {
    "name": "CROWTHORNE",
    "crs": "CRN",
    "latitude": 51.3667275343,
    "longitude": -0.8192733192
  },
  {
    "name": "CRYSTAL PALACE",
    "crs": "CYP",
    "latitude": 51.4181090348,
    "longitude": -0.072609797
  },
  {
    "name": "CROSSACRES MTLK",
    "crs": "CMK",
    "latitude": 53.3831857052654,
    "longitude": -2.25703925637322
  },
  {
    "name": "CASTLEBAY (BARRA)",
    "crs": "CTB",
    "latitude": 56.9552936606083,
    "longitude": -7.4865229701074
  },
  {
    "name": "IMPERIAL WHARF",
    "crs": "IMW",
    "latitude": 51.4749490963,
    "longitude": -0.1828226772
  },
  {
    "name": "CHANDLERS FORD",
    "crs": "CFR",
    "latitude": 50.9836839602,
    "longitude": -1.3851702456
  },
  {
    "name": "CROSS GATES",
    "crs": "CRG",
    "latitude": 53.8049136676,
    "longitude": -1.4515803316
  },
  {
    "name": "CASTLETON (MANCHESTER)",
    "crs": "CAS",
    "latitude": 53.5918465998,
    "longitude": -2.1782339145
  },
  {
    "name": "CHURCH STRETTON",
    "crs": "CTT",
    "latitude": 52.5374213535,
    "longitude": -2.8036943324
  },
  {
    "name": "CITY THAMESLINK",
    "crs": "CTK",
    "latitude": 51.5139361361,
    "longitude": -0.1035895627
  },
  {
    "name": "COLLINGTON",
    "crs": "CLL",
    "latitude": 50.8392890328,
    "longitude": 0.45786150182
  },
  {
    "name": "CASTLETON MOOR",
    "crs": "CSM",
    "latitude": 54.4671435917,
    "longitude": -0.9466482999
  },
  {
    "name": "COTTINGHAM",
    "crs": "CGM",
    "latitude": 53.7816489226,
    "longitude": -0.4064339029
  },
  {
    "name": "CUDDINGTON",
    "crs": "CUD",
    "latitude": 53.239919267,
    "longitude": -2.5993062431
  },
  {
    "name": "CUFFLEY",
    "crs": "CUF",
    "latitude": 51.7087217241,
    "longitude": -0.1097833319
  },
  {
    "name": "CULHAM",
    "crs": "CUM",
    "latitude": 51.653793234,
    "longitude": -1.2365137073
  },
  {
    "name": "CULRAIN",
    "crs": "CUA",
    "latitude": 57.9195130338,
    "longitude": -4.4042706239
  },
  {
    "name": "CUMBRAE",
    "crs": "CUL",
    "latitude": 55.780957559468,
    "longitude": -4.90369999767039
  },
  {
    "name": "CUPAR",
    "crs": "CUP",
    "latitude": 56.3169872093,
    "longitude": -3.0087561664
  },
  {
    "name": "CURRIEHILL",
    "crs": "CUH",
    "latitude": 55.9005653655,
    "longitude": -3.3187513661
  },
  {
    "name": "COWDENBEATH",
    "crs": "COW",
    "latitude": 56.1120916096,
    "longitude": -3.3431857394
  },
  {
    "name": "CWMBRAN",
    "crs": "CWM",
    "latitude": 51.656585933,
    "longitude": -3.0162033363
  },
  {
    "name": "CUXTON",
    "crs": "CUX",
    "latitude": 51.3739265998,
    "longitude": 0.46170869678
  },
  {
    "name": "CYNGHORDY",
    "crs": "CYN",
    "latitude": 52.0514978223,
    "longitude": -3.7482105633
  },
  {
    "name": "DAISY HILL",
    "crs": "DSY",
    "latitude": 53.5394529162,
    "longitude": -2.5158610222
  },
  {
    "name": "DALGETY BAY",
    "crs": "DAG",
    "latitude": 56.0420945921,
    "longitude": -3.3677205836
  },
  {
    "name": "DALMUIR",
    "crs": "DMR",
    "latitude": 55.9119292585,
    "longitude": -4.4266808932
  },
  {
    "name": "DALRY",
    "crs": "DLY",
    "latitude": 55.706220129,
    "longitude": -4.7110796267
  },
  {
    "name": "DALSTON JUNCTION",
    "crs": "DLJ",
    "latitude": 51.546115633,
    "longitude": -0.07513749
  },
  {
    "name": "DALSTON KINGSLAND",
    "crs": "DLK",
    "latitude": 51.5481481936,
    "longitude": -0.0757007451
  },
  {
    "name": "DALSTON (CUMBRIA)",
    "crs": "DLS",
    "latitude": 54.84617612,
    "longitude": -2.9888519379
  },
  {
    "name": "DALTON (CUMBRIA)",
    "crs": "DLT",
    "latitude": 54.1542367642,
    "longitude": -3.1790027741
  },
  {
    "name": "DALWHINNIE",
    "crs": "DLW",
    "latitude": 56.9351696784,
    "longitude": -4.2461984344
  },
  {
    "name": "DANBY",
    "crs": "DNY",
    "latitude": 54.4661532541,
    "longitude": -0.9109557494
  },
  {
    "name": "DANESCOURT",
    "crs": "DCT",
    "latitude": 51.5005058508,
    "longitude": -3.2339168193
  },
  {
    "name": "DANZEY",
    "crs": "DZY",
    "latitude": 52.3248126335,
    "longitude": -1.8208771505
  },
  {
    "name": "DARNALL",
    "crs": "DAN",
    "latitude": 53.3845841998,
    "longitude": -1.4125670678
  },
  {
    "name": "DARSHAM",
    "crs": "DSM",
    "latitude": 52.2729991724,
    "longitude": 1.5234701168
  },
  {
    "name": "DARTFORD",
    "crs": "DFD",
    "latitude": 51.4473706782,
    "longitude": 0.21924789083
  },
  {
    "name": "DARWEN",
    "crs": "DWN",
    "latitude": 53.6980359088,
    "longitude": -2.4649396696
  },
  {
    "name": "DATCHET",
    "crs": "DAT",
    "latitude": 51.4830768677,
    "longitude": -0.5794218285
  },
  {
    "name": "DAVENPORT",
    "crs": "DVN",
    "latitude": 53.390900398,
    "longitude": -2.1529577531
  },
  {
    "name": "DAWLISH",
    "crs": "DWL",
    "latitude": 50.5808204337,
    "longitude": -3.46462521
  },
  {
    "name": "DAWLISH WARREN",
    "crs": "DWW",
    "latitude": 50.5987105889,
    "longitude": -3.4435614822
  },
  {
    "name": "KELVINDALE",
    "crs": "KVD",
    "latitude": 55.8935558201,
    "longitude": -4.3095725794
  },
  {
    "name": "DEAL",
    "crs": "DEA",
    "latitude": 51.223044527,
    "longitude": 1.39884701484
  },
  {
    "name": "DEAN (WILTS)",
    "crs": "DEN",
    "latitude": 51.0424609343,
    "longitude": -1.6348670291
  },
  {
    "name": "DEGANWY",
    "crs": "DGY",
    "latitude": 53.2947474472,
    "longitude": -3.8333863039
  },
  {
    "name": "DEIGHTON",
    "crs": "DHN",
    "latitude": 53.6684825779,
    "longitude": -1.7518963941
  },
  {
    "name": "DELAMERE",
    "crs": "DLM",
    "latitude": 53.228775259,
    "longitude": -2.6665603067
  },
  {
    "name": "DENHAM",
    "crs": "DNM",
    "latitude": 51.5788372482,
    "longitude": -0.4974367743
  },
  {
    "name": "DENHAM GOLF CLUB",
    "crs": "DGC",
    "latitude": 51.5805976673,
    "longitude": -0.5177866018
  },
  {
    "name": "DENMARK HILL",
    "crs": "DMK",
    "latitude": 51.4682026711,
    "longitude": -0.0893608031
  },
  {
    "name": "DENT",
    "crs": "DNT",
    "latitude": 54.2824086558,
    "longitude": -2.3635985695
  },
  {
    "name": "DORKING (DEEPDENE)",
    "crs": "DPD",
    "latitude": 51.2388041881,
    "longitude": -0.3246431075
  },
  {
    "name": "DEPTFORD",
    "crs": "DEP",
    "latitude": 51.4788480269,
    "longitude": -0.0262701306
  },
  {
    "name": "DERBY ROAD (IPSWICH)",
    "crs": "DBR",
    "latitude": 52.0505548339,
    "longitude": 1.18264348311
  },
  {
    "name": "DERKER MTLK",
    "crs": "DKR",
    "latitude": 53.5501406963,
    "longitude": -2.1016880762
  },
  {
    "name": "DEVONPORT",
    "crs": "",
    "latitude": 50.3781887920177,
    "longitude": -4.17149754870392
  },
  {
    "name": "DEVONPORT",
    "crs": "",
    "latitude": 50.3785333817,
    "longitude": -4.1707098642
  },
  {
    "name": "DINGLE ROAD",
    "crs": "DGL",
    "latitude": 51.4400535971,
    "longitude": -3.1805905359
  },
  {
    "name": "DAGENHAM DOCK",
    "crs": "DDK",
    "latitude": 51.5260896747,
    "longitude": 0.14610297941
  },
  {
    "name": "DIDCOT PARKWAY",
    "crs": "",
    "latitude": 51.610954351,
    "longitude": -1.2428934327
  },
  {
    "name": "DIDCOT PARKWAY",
    "crs": "",
    "latitude": 51.6135917510584,
    "longitude": -1.24316332972615
  },
  {
    "name": "DIDCOT PARKWAY",
    "crs": "",
    "latitude": 51.6135917510584,
    "longitude": -1.24316332972615
  },
  {
    "name": "DIGBY & SOWTON",
    "crs": "DIG",
    "latitude": 50.71398935,
    "longitude": -3.4735604367
  },
  {
    "name": "DILTON MARSH",
    "crs": "DMH",
    "latitude": 51.2489871833,
    "longitude": -2.2079152909
  },
  {
    "name": "DINAS POWYS",
    "crs": "DNS",
    "latitude": 51.4316642431,
    "longitude": -3.2183515515
  },
  {
    "name": "DINAS (RHONDDA)",
    "crs": "DMG",
    "latitude": 51.6178339704,
    "longitude": -3.437541092
  },
  {
    "name": "DINGWALL",
    "crs": "DIN",
    "latitude": 57.5942353512,
    "longitude": -4.4221988056
  },
  {
    "name": "DINSDALE",
    "crs": "DND",
    "latitude": 54.5147288194,
    "longitude": -1.4670649796
  },
  {
    "name": "DISLEY",
    "crs": "DSL",
    "latitude": 53.3581826811,
    "longitude": -2.0424815187
  },
  {
    "name": "DISS",
    "crs": "DIS",
    "latitude": 52.3736579092,
    "longitude": 1.12369755397
  },
  {
    "name": "DALMALLY",
    "crs": "DAL",
    "latitude": 56.4011891967,
    "longitude": -4.98355207
  },
  {
    "name": "DALMARNOCK",
    "crs": "DAK",
    "latitude": 55.8420852586,
    "longitude": -4.2177085974
  },
  {
    "name": "DALMENY",
    "crs": "",
    "latitude": 55.9863186252,
    "longitude": -3.3816196054
  },
  {
    "name": "DALMENY",
    "crs": "",
    "latitude": 55.9863117818768,
    "longitude": -3.38161748098775
  },
  {
    "name": "DALREOCH",
    "crs": "DLR",
    "latitude": 55.9474149906,
    "longitude": -4.5778629409
  },
  {
    "name": "DARLINGTON",
    "crs": "DAR",
    "latitude": 54.5204478657,
    "longitude": -1.5473238242
  },
  {
    "name": "CATTERICK GARRISON (BY BUS)",
    "crs": "CAZ",
    "latitude": 54.372693333929,
    "longitude": -1.71981983563156
  },
  {
    "name": "CATTERICK GARRISON BUS",
    "crs": "CGT",
    "latitude": 54.3745013236987,
    "longitude": -1.72442560940248
  },
  {
    "name": "RICHMOND YKS BUS",
    "crs": "RMK",
    "latitude": 54.4023915583164,
    "longitude": -1.73810246781148
  },
  {
    "name": "TEES VALLEY AIRPORT",
    "crs": "TVA",
    "latitude": 54.515431820022,
    "longitude": -1.42227107034149
  },
  {
    "name": "DOLWYDDELAN",
    "crs": "DWD",
    "latitude": 53.0520123701,
    "longitude": -3.8851321661
  },
  {
    "name": "DUMBARTON CENTRAL",
    "crs": "DBC",
    "latitude": 55.9466548759,
    "longitude": -4.5669205724
  },
  {
    "name": "DUMBARTON EAST",
    "crs": "DBE",
    "latitude": 55.9422468865,
    "longitude": -4.5541366994
  },
  {
    "name": "DENBY DALE",
    "crs": "DBD",
    "latitude": 53.572631032,
    "longitude": -1.6632103405
  },
  {
    "name": "DUNFERMLINE TOWN",
    "crs": "DFE",
    "latitude": 56.0681900004,
    "longitude": -3.4525286657
  },
  {
    "name": "DUNFERMLINE QUEEN MARGARET",
    "crs": "DFL",
    "latitude": 56.0805744415,
    "longitude": -3.4214677688
  },